lat,long,alt,pitch,roll,yaw,time
0.0,0.0,0.0,0.0,0.0,0.0,0.04999995231628418
0.0,0.0,0.0,0.0,0.0,0.0,0.09999990463256836
0.0,0.0,0.0,0.0,0.0,0.0,0.15000009536743164
0.0,0.0,0.0,0.0,0.0,0.0,0.21000003814697266
0.0,0.0,0.0,0.0,0.0,0.0,0.25999999046325684
0.0,0.0,0.0,0.0,0.0,0.0,0.309999942779541
0.0,0.0,-0.020000000000000462,-1.4156100000203842e-07,1.982599500000015e-05,0.0014875531200000403,0.36999988555908203
0.0,0.0,-0.020000000000000462,-1.4156100000203842e-07,1.982599500000015e-05,0.0014875531200000403,0.4200000762939453
0.0,0.0,-0.020000000000000462,-1.4156100000203842e-07,1.982599500000015e-05,0.0014875531200000403,0.4700000286102295
0.0,0.0,-0.020000000000000462,-1.4156100000203842e-07,1.982599500000015e-05,0.0014875531200000403,0.5299999713897705
0.0,0.0,-0.020000000000000462,-1.4156100000203842e-07,1.982599500000015e-05,0.0014875531200000403,0.5799999237060547
0.0,0.0,-0.020000000000000462,-1.4156100000203842e-07,1.982599500000015e-05,0.0014875531200000403,0.6299998760223389
0.0,0.0,-0.020000000000000462,-1.4156100000203842e-07,1.982599500000015e-05,0.0014875531200000403,0.6800000667572021
0.0,0.0,-0.020000000000000462,-1.4156100000203842e-07,1.982599500000015e-05,0.0014875531200000403,0.7400000095367432
0.0,0.0,-0.020000000000000462,-1.4156100000203842e-07,1.982599500000015e-05,0.0014875531200000403,0.7899999618530273
0.0,0.0,-0.020000000000000462,-1.4156100000203842e-07,1.982599500000015e-05,0.0014875531200000403,0.8399999141693115
0.0,0.0,-0.020000000000000462,-1.4156100000203842e-07,1.982599500000015e-05,0.0014875531200000403,0.8900001049041748
0.0,0.0,-0.020000000000000462,-1.4156100000203842e-07,1.982599500000015e-05,0.0014875531200000403,0.940000057220459
0.0,0.0,-0.020000000000000462,-1.4156100000203842e-07,1.982599500000015e-05,0.0014875531200000403,0.9900000095367432
0.0,0.0,-0.020000000000000462,-1.4156100000203842e-07,1.982599500000015e-05,0.0014875531200000403,1.0499999523162842
0.0,0.0,-0.020000000000000462,-1.4156100000203842e-07,1.982599500000015e-05,0.0014875531200000403,1.0999999046325684
0.0,0.0,-0.020000000000000462,-1.4156100000203842e-07,1.982599500000015e-05,0.0014875531200000403,1.1500000953674316
0.0,0.0,-0.020000000000000462,-1.4156100000203842e-07,1.982599500000015e-05,0.0014875531200000403,1.2000000476837158
0.0,0.0,-0.020000000000000462,-1.4156100000203842e-07,1.982599500000015e-05,0.0014875531200000403,1.25
0.0,0.0,-0.020000000000000462,-1.4156100000203842e-07,1.982599500000015e-05,0.0014875531200000403,1.2999999523162842
0.0,0.0,-0.020000000000000462,-1.4156100000203842e-07,1.982599500000015e-05,0.0014875531200000403,1.3499999046325684
0.0,0.0,-0.020000000000000462,-1.4156100000203842e-07,1.982599500000015e-05,0.0014875531200000403,1.4000000953674316
0.0,0.0,-0.020000000000000462,-1.4156100000203842e-07,1.982599500000015e-05,0.0014875531200000403,1.4500000476837158
0.0,0.0,-0.020000000000000462,-1.4156100000203842e-07,1.982599500000015e-05,0.0014875531200000403,1.5
0.0,0.0,-0.020000000000000462,-1.4156100000203842e-07,1.982599500000015e-05,0.0014875531200000403,1.559999942779541
0.0,0.0,-0.020000000000000462,-1.4156100000203842e-07,1.982599500000015e-05,0.0014875531200000403,1.6099998950958252
0.0,0.0,-0.020000000000000462,-1.4156100000203842e-07,1.982599500000015e-05,0.0014875531200000403,1.6600000858306885
0.0,0.0,-0.020000000000000462,-1.4156100000203842e-07,1.982599500000015e-05,0.0014875531200000403,1.7200000286102295
0.0,0.0,-0.020000000000000462,-1.4156100000203842e-07,1.982599500000015e-05,0.0014875531200000403,1.7699999809265137
0.0,0.0,-0.020000000000000462,-1.4156100000203842e-07,1.982599500000015e-05,0.0014875531200000403,1.8199999332427979
0.0,0.0,-0.020000000000000462,-1.4156100000203842e-07,1.982599500000015e-05,0.0014875531200000403,1.8799998760223389
0.0,0.0,-0.020000000000000462,-1.4156100000203842e-07,1.982599500000015e-05,0.0014875531200000403,1.9300000667572021
0.0,0.0,-0.020000000000000462,-1.4156100000203842e-07,1.982599500000015e-05,0.0014875531200000403,1.9800000190734863
0.0,0.0,-0.020000000000000462,-1.4156100000203842e-07,1.982599500000015e-05,0.0014875531200000403,2.0299999713897705
0.0,0.0,-0.020000000000000462,-1.4156100000203842e-07,1.982599500000015e-05,0.0014875531200000403,2.0799999237060547
0.0,0.0,-0.020000000000000462,-1.4156100000203842e-07,1.982599500000015e-05,0.0014875531200000403,2.140000104904175
0.0,0.0,-0.020000000000000462,-1.4156100000203842e-07,1.982599500000015e-05,0.0014875531200000403,2.190000057220459
0.0,0.0,-0.020000000000000462,-1.4156100000203842e-07,1.982599500000015e-05,0.0014875531200000403,2.25
0.0,0.0,-0.020000000000000462,-1.4156100000203842e-07,1.982599500000015e-05,0.0014875531200000403,2.299999952316284
0.0,0.0,-0.020000000000000462,-1.4156100000203842e-07,1.982599500000015e-05,0.0014875531200000403,2.3499999046325684
0.0,0.0,-0.020000000000000462,-1.4156100000203842e-07,1.982599500000015e-05,0.0014875531200000403,2.4000000953674316
0.0,0.0,-0.040000000000000036,-0.002637395635200001,-0.0082157729193,0.005178511143000053,2.450000047683716
0.0,0.0,-0.040000000000000036,-0.002637395635200001,-0.0082157729193,0.005178511143000053,2.509999990463257
0.0,0.0,-0.040000000000000036,-0.002637395635200001,-0.0082157729193,0.005178511143000053,2.559999942779541
0.0,0.0,-0.04999999999999982,-0.005118129774900001,-0.016120317392,0.007083058357000072,2.609999895095825
0.0,0.0,-0.04999999999999982,-0.005118129774900001,-0.016120317392,0.007083058357000072,2.6600000858306885
0.0,0.0,-0.04999999999999982,-0.005118129774900001,-0.016120317392,0.007083058357000072,2.7200000286102295
0.0,0.0,-0.04999999999999982,-0.005118129774900001,-0.016120317392,0.007083058357000072,2.7699999809265137
0.0,0.0,-0.04999999999999982,-0.005118129774900001,-0.016120317392,0.007083058357000072,2.819999933242798
0.0,0.0,-0.04999999999999982,-0.0079143699258,-0.023145995102799997,0.00833666324600002,2.869999885559082
0.0,0.0,-0.04999999999999982,-0.0079143699258,-0.023145995102799997,0.00833666324600002,2.930000066757202
0.0,0.0,-0.07000000000000028,-0.0079143699258,-0.023145995102799997,0.00833666324600002,2.9800000190734863
0.0,0.0,-0.07000000000000028,-0.0079143699258,-0.023145995102799997,0.00833666324600002,3.0299999713897705
0.0,0.0,-0.07000000000000028,-0.0079143699258,-0.023145995102799997,0.00833666324600002,3.0799999237060547
0.0,0.0,-0.07000000000000028,-0.0079143699258,-0.023145995102799997,0.00833666324600002,3.140000104904175
0.0,0.0,-0.10000000000000053,-0.0116848014295,-0.032176638953400005,0.009491026402000058,3.190000057220459
0.0,0.0,-0.10000000000000053,-0.0116848014295,-0.032176638953400005,0.009491026402000058,3.240000009536743
0.0,0.0,-0.10000000000000053,-0.0116848014295,-0.032176638953400005,0.009491026402000058,3.299999952316284
0.0,0.0,-0.10000000000000053,-0.0116848014295,-0.032176638953400005,0.009491026402000058,3.3499999046325684
0.0,0.0,-0.10000000000000053,-0.0116848014295,-0.032176638953400005,0.009491026402000058,3.4000000953674316
0.0,0.0,-0.10000000000000053,-0.0116848014295,-0.032176638953400005,0.009491026402000058,3.4600000381469727
0.0,0.0,-0.10000000000000053,-0.0116848014295,-0.032176638953400005,0.009491026402000058,3.509999990463257
0.0,0.0,-0.1200000000000001,-0.014097508043000001,-0.036310403607799996,0.010002553463000052,3.559999942779541
0.0,0.0,-0.1200000000000001,-0.014097508043000001,-0.036310403607799996,0.010002553463000052,3.619999885559082
0.0,0.0,-0.13999999999999968,-0.016238406300500004,-0.042492615990300006,0.011301755905000044,3.6700000762939453
0.0,0.0,-0.13999999999999968,-0.016238406300500004,-0.042492615990300006,0.011301755905000044,3.7200000286102295
0.0,0.0,-0.13999999999999968,-0.016238406300500004,-0.042492615990300006,0.011301755905000044,3.7699999809265137
0.0,0.0,-0.13999999999999968,-0.016238406300500004,-0.042492615990300006,0.011301755905000044,3.819999933242798
0.0,0.0,-0.13999999999999968,-0.016238406300500004,-0.042492615990300006,0.011301755905000044,3.879999876022339
0.0,0.0,-0.13999999999999968,-0.016238406300500004,-0.042492615990300006,0.011301755905000044,3.930000066757202
0.0,0.0,-0.13999999999999968,-0.016238406300500004,-0.042492615990300006,0.011301755905000044,3.990000009536743
0.0,0.0,-0.16000000000000014,-0.0176720544695,-0.0435831723735,0.013510048389000051,4.039999961853027
0.0,0.0,-0.16000000000000014,-0.0176720544695,-0.0435831723735,0.013510048389000051,4.0899999141693115
0.0,0.0,-0.16000000000000014,-0.0176720544695,-0.0435831723735,0.013510048389000051,4.150000095367432
0.0,0.0,-0.17999999999999972,-0.0189683623611,-0.011876760981999999,0.014939785004000061,4.200000047683716
0.0,0.0,-0.17999999999999972,-0.0189683623611,-0.011876760981999999,0.014939785004000061,4.25
0.0,0.0,-0.17999999999999972,-0.0189683623611,-0.011876760981999999,0.014939785004000061,4.299999952316284
0.0,0.0,-0.17999999999999972,-0.0189683623611,-0.011876760981999999,0.014939785004000061,4.349999904632568
0.0,0.0,-0.17999999999999972,-0.0189683623611,-0.011876760981999999,0.014939785004000061,4.400000095367432
0.0,0.0,-0.17999999999999972,-0.0189683623611,-0.011876760981999999,0.014939785004000061,4.460000038146973
0.0,0.0,-0.17999999999999972,-0.0189683623611,-0.011876760981999999,0.014939785004000061,4.509999990463257
0.0,0.0,-0.17999999999999972,0.008741402998599998,0.0328704500571,0.031084716319999983,4.559999942779541
0.0,0.0,-0.17999999999999972,0.008741402998599998,0.0328704500571,0.031084716319999983,4.619999885559082
0.0,0.0,-0.20000000000000018,0.0541188828648,0.034551762975799996,0.03390604257600005,4.670000076293945
0.0,0.0,-0.20000000000000018,0.0541188828648,0.034551762975799996,0.03390604257600005,4.7200000286102295
0.0,0.0,-0.20000000000000018,0.0541188828648,0.034551762975799996,0.03390604257600005,4.769999980926514
0.0,0.0,-0.20000000000000018,0.0541188828648,0.034551762975799996,0.03390604257600005,4.819999933242798
0.0,0.0,-0.20000000000000018,0.0541188828648,0.034551762975799996,0.03390604257600005,4.879999876022339
0.0,0.0,-0.20000000000000018,0.0541188828648,0.034551762975799996,0.03390604257600005,4.930000066757202
0.0,0.0,-0.1900000000000004,0.0036761369556999983,0.0036850571633000005,0.042269706726000056,4.980000019073486
0.0,0.0,-0.1900000000000004,0.0036761369556999983,0.0036850571633000005,0.042269706726000056,5.0299999713897705
0.0,0.0,-0.1900000000000004,0.0036761369556999983,0.0036850571633000005,0.042269706726000056,5.079999923706055
0.0,0.0,-0.1900000000000004,0.0036761369556999983,0.0036850571633000005,0.042269706726000056,5.140000104904175
0.0,0.0,-0.1900000000000004,0.036213438958,0.0063875410706,0.019977748394000017,5.190000057220459
0.0,0.0,-0.1900000000000004,0.036213438958,0.0063875410706,0.019977748394000017,5.240000009536743
0.0,0.0,-0.17999999999999972,0.036213438958,0.0063875410706,0.019977748394000017,5.289999961853027
0.0,0.0,-0.17999999999999972,0.036213438958,0.0063875410706,0.019977748394000017,5.349999904632568
0.0,0.0,-0.17999999999999972,0.036213438958,0.0063875410706,0.019977748394000017,5.400000095367432
0.0,0.0,-0.17999999999999972,0.036213438958,0.0063875410706,0.019977748394000017,5.450000047683716
0.0,0.0,-0.17999999999999972,0.036213438958,0.0063875410706,0.019977748394000017,5.509999990463257
0.0,0.0,-0.16000000000000014,0.011578820645899999,-0.0133923618123,0.023505747318000036,5.559999942779541
0.0,0.0,-0.16000000000000014,0.011578820645899999,-0.0133923618123,0.023505747318000036,5.619999885559082
0.0,0.0,-0.16000000000000014,0.02202859194954,-0.0534887900576,0.008408546448000043,5.670000076293945
0.0,0.0,-0.16000000000000014,0.02202859194954,-0.0534887900576,0.008408546448000043,5.7200000286102295
0.0,0.0,-0.16000000000000014,0.02202859194954,-0.0534887900576,0.008408546448000043,5.7799999713897705
0.0,0.0,-0.16000000000000014,0.02202859194954,-0.0534887900576,0.008408546448000043,5.829999923706055
0.0,0.0,-0.16000000000000014,0.02202859194954,-0.0534887900576,0.008408546448000043,5.879999876022339
0.0,0.0,-0.16000000000000014,0.02202859194954,-0.0534887900576,0.008408546448000043,5.940000057220459
0.0,0.0,-0.13999999999999968,0.014541245996999998,-0.0548762297258,0.028082668781000075,5.990000009536743
0.0,0.0,-0.13999999999999968,0.014541245996999998,-0.0548762297258,0.028082668781000075,6.039999961853027
0.0,0.0,-0.13999999999999968,0.014541245996999998,-0.0548762297258,0.028082668781000075,6.099999904632568
0.0,0.0,-0.08999999999999986,-0.004503278061700002,-0.056865534745100005,0.015271782875000084,6.150000095367432
0.0,0.0,-0.08999999999999986,-0.004503278061700002,-0.056865534745100005,0.015271782875000084,6.200000047683716
0.0,0.0,-0.08999999999999986,-0.004503278061700002,-0.056865534745100005,0.015271782875000084,6.25
0.0,0.0,-0.08999999999999986,-0.004503278061700002,-0.056865534745100005,0.015271782875000084,6.309999942779541
0.0,0.0,-0.08999999999999986,-0.004503278061700002,-0.056865534745100005,0.015271782875000084,6.359999895095825
0.0,0.0,-0.08999999999999986,-0.004503278061700002,-0.056865534745100005,0.015271782875000084,6.4100000858306885
0.0,0.0,-0.08999999999999986,-0.004503278061700002,-0.056865534745100005,0.015271782875000084,6.4700000286102295
0.0,0.0,-0.08999999999999986,-0.004503278061700002,-0.056865534745100005,0.015271782875000084,6.519999980926514
0.0,0.0,-0.08999999999999986,-0.028478283435100005,-0.0154974898323,0.011145830154000058,6.569999933242798
0.0,0.0,0.08000000000000007,-0.028478283435100005,-0.0154974898323,0.011145830154000058,6.619999885559082
0.0,0.0,0.08000000000000007,-0.028478283435100005,-0.0154974898323,0.011145830154000058,6.680000066757202
0.0,0.0,0.2599999999999998,-0.03900109604,-0.005435972474499999,0.004077136517000035,6.730000019073486
0.0,0.0,0.2599999999999998,-0.03900109604,-0.005435972474499999,0.004077136517000035,6.789999961853027
0.0,0.0,0.2599999999999998,-0.03900109604,-0.005435972474499999,0.004077136517000035,6.8399999141693115
0.0,0.0,0.2599999999999998,-0.03900109604,-0.005435972474499999,0.004077136517000035,6.890000104904175
0.0,0.0,0.2599999999999998,-0.03900109604,-0.005435972474499999,0.004077136517000035,6.940000057220459
0.0,0.0,0.2599999999999998,-0.03900109604,-0.005435972474499999,0.004077136517000035,6.990000009536743
0.0,0.0,0.4899999999999993,-0.0390779189765,-0.036475169472399996,0.008024871348999985,7.049999952316284
0.0,0.0,0.4899999999999993,-0.0390779189765,-0.036475169472399996,0.008024871348999985,7.099999904632568
0.0,0.0,0.4899999999999993,-0.0390779189765,-0.036475169472399996,0.008024871348999985,7.150000095367432
0.0,0.0,0.4899999999999993,-0.0390779189765,-0.036475169472399996,0.008024871348999985,7.200000047683716
0.0,0.0,0.6399999999999997,-0.04509618505830001,-0.06260315235700001,0.0031204819680000773,7.259999990463257
0.0,0.0,0.6399999999999997,-0.04509618505830001,-0.06260315235700001,0.0031204819680000773,7.309999942779541
0.0,0.0,0.6399999999999997,-0.04509618505830001,-0.06260315235700001,0.0031204819680000773,7.369999885559082
0.0,0.0,0.6399999999999997,-0.04509618505830001,-0.06260315235700001,0.0031204819680000773,7.420000076293945
0.0,0.0,0.6399999999999997,-0.04509618505830001,-0.06260315235700001,0.0031204819680000773,7.4700000286102295
0.0,0.0,0.6399999999999997,-0.04509618505830001,-0.06260315235700001,0.0031204819680000773,7.5299999713897705
0.0,0.0,0.6399999999999997,-0.04509618505830001,-0.06260315235700001,0.0031204819680000773,7.579999923706055
0.0,0.0,0.6399999999999997,-0.04509618505830001,-0.06260315235700001,0.0031204819680000773,7.629999876022339
0.0,0.0,0.6399999999999997,-0.037485782057000004,-0.0585777526721,0.0030853748319999985,7.680000066757202
0.0,0.0,0.8799999999999999,-0.026973567903000005,-0.017170987091899997,0.004986763000999983,7.740000009536743
0.0,0.0,0.8799999999999999,-0.026973567903000005,-0.017170987091899997,0.004986763000999983,7.789999961853027
0.0,0.0,0.8799999999999999,-0.026973567903000005,-0.017170987091899997,0.004986763000999983,7.8399999141693115
0.0,0.0,0.8799999999999999,-0.026973567903000005,-0.017170987091899997,0.004986763000999983,7.900000095367432
0.0,0.0,0.9400000000000004,-0.0223920308053,0.01111948769541,0.007390618324000009,7.950000047683716
0.0,0.0,0.9400000000000004,-0.0223920308053,0.01111948769541,0.007390618324000009,8.0
0.0,0.0,0.9400000000000004,-0.0223920308053,0.01111948769541,0.007390618324000009,8.059999942779541
0.0,0.0,0.9400000000000004,-0.0223920308053,0.01111948769541,0.007390618324000009,8.109999895095825
0.0,0.0,0.9400000000000004,-0.0223920308053,0.01111948769541,0.007390618324000009,8.170000076293945
0.0,0.0,0.9400000000000004,-0.0223920308053,0.01111948769541,0.007390618324000009,8.22000002861023
0.0,0.0,0.9400000000000004,-0.0223920308053,0.01111948769541,0.007390618324000009,8.269999980926514
0.0,0.0,0.9400000000000004,-0.0223920308053,0.01111948769541,0.007390618324000009,8.319999933242798
0.0,0.0,0.9400000000000004,-0.0223920308053,0.01111948769541,0.007390618324000009,8.379999876022339
0.0,0.0,0.9400000000000004,-0.0223920308053,0.01111948769541,0.007390618324000009,8.430000066757202
0.0,0.0,1.0100000000000007,-0.010223273187800003,0.02081280527638,0.030710160732000058,8.490000009536743
0.0,0.0,1.0100000000000007,-0.010223273187800003,0.02081280527638,0.030710160732000058,8.539999961853027
0.0,0.0,1.0100000000000007,-0.010223273187800003,0.02081280527638,0.030710160732000058,8.589999914169312
0.0,0.0,1.0100000000000007,-0.010223273187800003,0.02081280527638,0.030710160732000058,8.650000095367432
0.0,0.0,1.1100000000000003,-0.010223273187800003,0.02081280527638,0.030710160732000058,8.700000047683716
0.0,0.0,1.1100000000000003,-0.010223273187800003,0.02081280527638,0.030710160732000058,8.759999990463257
0.0,0.0,1.1100000000000003,-0.010223273187800003,0.02081280527638,0.030710160732000058,8.809999942779541
0.0,0.0,1.2499999999999991,-0.0021292846649000018,0.01917095109822,0.05469202995300004,8.859999895095825
0.0,0.0,1.2499999999999991,-0.0021292846649000018,0.01917095109822,0.05469202995300004,8.920000076293945
0.0,0.0,1.2499999999999991,-0.0021292846649000018,0.01917095109822,0.05469202995300004,8.97000002861023
0.0,0.0,1.2499999999999991,-0.0021292846649000018,0.01917095109822,0.05469202995300004,9.019999980926514
0.0,0.0,1.2499999999999991,-0.0021292846649000018,0.01917095109822,0.05469202995300004,9.079999923706055
0.0,0.0,1.3999999999999995,0.004165552556599998,0.01830090628939,0.05850583314900004,9.129999876022339
0.0,0.0,1.3999999999999995,0.004165552556599998,0.01830090628939,0.05850583314900004,9.180000066757202
0.0,0.0,1.3999999999999995,0.004165552556599998,0.01830090628939,0.05850583314900004,9.230000019073486
0.0,0.0,1.5599999999999996,0.011191605590299998,0.01838259119542,0.05857938528100004,9.27999997138977
0.0,0.0,1.5599999999999996,0.011191605590299998,0.01838259119542,0.05857938528100004,9.339999914169312
0.0,0.0,1.5599999999999996,0.011191605590299998,0.01838259119542,0.05857938528100004,9.390000104904175
0.0,0.0,1.5599999999999996,0.011191605590299998,0.01838259119542,0.05857938528100004,9.440000057220459
0.0,0.0,1.5599999999999996,0.011191605590299998,0.01838259119542,0.05857938528100004,9.5
0.0,0.0,1.5599999999999996,0.011191605590299998,0.01838259119542,0.05857938528100004,9.549999952316284
0.0,0.0,1.5599999999999996,0.011191605590299998,0.01838259119542,0.05857938528100004,9.599999904632568
0.0,0.0,1.5599999999999996,0.011191605590299998,0.01838259119542,0.05857938528100004,9.650000095367432
0.0,0.0,1.5599999999999996,0.011191605590299998,0.01838259119542,0.05857938528100004,9.700000047683716
0.0,0.0,1.7399999999999993,-0.0312854200601,0.0290746418759,0.059779286385000074,9.759999990463257
0.0,0.0,1.7399999999999993,-0.0312854200601,0.0290746418759,0.059779286385000074,9.809999942779541
0.0,0.0,1.7399999999999993,-0.0312854200601,0.0290746418759,0.059779286385000074,9.869999885559082
0.0,0.0,1.7399999999999993,-0.0312854200601,0.0290746418759,0.059779286385000074,9.920000076293945
0.0,0.0,1.7399999999999993,-0.0312854200601,0.0290746418759,0.059779286385000074,9.97000002861023
0.0,0.0,1.6399999999999997,-0.0326305255293,0.0610002400354,0.060861170292,10.019999980926514
0.0,0.0,1.6399999999999997,-0.0326305255293,0.0610002400354,0.060861170292,10.069999933242798
0.0,0.0,1.6399999999999997,-0.0326305255293,0.0610002400354,0.060861170292,10.129999876022339
0.0,0.0,1.6399999999999997,-0.0326305255293,0.0610002400354,0.060861170292,10.180000066757202
0.0,0.0,1.6399999999999997,-0.029990833252600005,0.0659779803828,0.05915421247500008,10.230000019073486
0.0,0.0,1.6399999999999997,-0.029990833252600005,0.0659779803828,0.05915421247500008,10.289999961853027
0.0,0.0,1.5200000000000005,-0.029990833252600005,0.0659779803828,0.05915421247500008,10.339999914169312
0.0,0.0,1.5200000000000005,-0.029990833252600005,0.0659779803828,0.05915421247500008,10.390000104904175
0.0,0.0,1.5200000000000005,-0.029990833252600005,0.0659779803828,0.05915421247500008,10.440000057220459
0.0,0.0,1.5200000000000005,-0.029990833252600005,0.0659779803828,0.05915421247500008,10.490000009536743
0.0,0.0,1.4400000000000004,-0.037047792226,0.0601054849103,0.05818921327600002,10.549999952316284
0.0,0.0,1.4400000000000004,-0.037047792226,0.0601054849103,0.05818921327600002,10.599999904632568
0.0,0.0,1.4400000000000004,-0.037047792226,0.0601054849103,0.05818921327600002,10.650000095367432
0.0,0.0,1.4400000000000004,-0.037047792226,0.0601054849103,0.05818921327600002,10.700000047683716
0.0,0.0,1.4400000000000004,-0.037047792226,0.0601054849103,0.05818921327600002,10.759999990463257
0.0,0.0,1.4300000000000006,-0.0366232283413,0.056706202216499996,0.05772978067400003,10.809999942779541
0.0,0.0,1.4300000000000006,-0.0366232283413,0.056706202216499996,0.05772978067400003,10.859999895095825
0.0,0.0,1.4300000000000006,-0.0366232283413,0.056706202216499996,0.05772978067400003,10.910000085830688
0.0,0.0,1.4300000000000006,-0.0366232283413,0.056706202216499996,0.05772978067400003,10.97000002861023
0.0,0.0,1.4300000000000006,-0.0366232283413,0.056706202216499996,0.05772978067400003,11.019999980926514
0.0,0.0,1.5100000000000007,-0.0282571054995,0.059716993011599995,0.05818635225300006,11.069999933242798
0.0,0.0,1.5100000000000007,-0.0282571054995,0.059716993011599995,0.05818635225300006,11.119999885559082
0.0,0.0,1.5100000000000007,-0.0282571054995,0.059716993011599995,0.05818635225300006,11.180000066757202
0.0,0.0,1.5100000000000007,-0.0282571054995,0.059716993011599995,0.05818635225300006,11.230000019073486
0.0,0.0,1.5100000000000007,-0.0282571054995,0.059716993011599995,0.05818635225300006,11.27999997138977
0.0,0.0,1.5100000000000007,-0.0282571054995,0.059716993011599995,0.05818635225300006,11.329999923706055
0.0,0.0,1.62,-0.0234409645199,0.05056717339900001,0.05906343460100005,11.390000104904175
0.0,0.0,1.62,-0.0234409645199,0.05056717339900001,0.05906343460100005,11.440000057220459
0.0,0.0,1.62,-0.0234409645199,0.05056717339900001,0.05906343460100005,11.490000009536743
0.0,0.0,1.7199999999999998,-0.010270263999700005,0.0438593151048,0.05871838331200008,11.539999961853027
0.0,0.0,1.7199999999999998,-0.010270263999700005,0.0438593151048,0.05871838331200008,11.599999904632568
0.0,0.0,1.7199999999999998,-0.010270263999700005,0.0438593151048,0.05871838331200008,11.650000095367432
0.0,0.0,1.7199999999999998,-0.010270263999700005,0.0438593151048,0.05871838331200008,11.700000047683716
0.0,0.0,1.7199999999999998,-0.010270263999700005,0.0438593151048,0.05871838331200008,11.75
0.0,0.0,1.7199999999999998,-0.010270263999700005,0.0438593151048,0.05871838331200008,11.809999942779541
0.0,0.0,1.8500000000000005,0.010118963196899998,0.045648616738600004,0.06376731395700008,11.859999895095825
0.0,0.0,1.8500000000000005,0.010118963196899998,0.045648616738600004,0.06376731395700008,11.920000076293945
0.0,0.0,1.8500000000000005,0.010118963196899998,0.045648616738600004,0.06376731395700008,11.97000002861023
0.0,0.0,1.8500000000000005,0.01871316414331,0.0391683848575,0.06475740671200003,12.019999980926514
0.0,0.0,1.8500000000000005,0.01871316414331,0.0391683848575,0.06475740671200003,12.079999923706055
0.0,0.0,1.9500000000000002,0.01871316414331,0.0391683848575,0.06475740671200003,12.129999876022339
0.0,0.0,1.9500000000000002,0.01871316414331,0.0391683848575,0.06475740671200003,12.180000066757202
0.0,0.0,1.9500000000000002,0.01871316414331,0.0391683848575,0.06475740671200003,12.240000009536743
0.0,0.0,1.9500000000000002,0.01871316414331,0.0391683848575,0.06475740671200003,12.289999961853027
0.0,0.0,2.0200000000000005,0.01939539844175,0.026041334495,0.07027828693400007,12.339999914169312
0.0,0.0,2.0200000000000005,0.01939539844175,0.026041334495,0.07027828693400007,12.400000095367432
0.0,0.0,2.0200000000000005,0.01939539844175,0.026041334495,0.07027828693400007,12.450000047683716
0.0,0.0,2.0200000000000005,0.01939539844175,0.026041334495,0.07027828693400007,12.5
0.0,0.0,2.0200000000000005,0.01939539844175,0.026041334495,0.07027828693400007,12.559999942779541
0.0,0.0,2.0699999999999994,0.003945522010399997,0.01911039650442,0.08069229126,12.609999895095825
0.0,0.0,2.0699999999999994,0.003945522010399997,0.01911039650442,0.08069229126,12.670000076293945
0.0,0.0,2.0699999999999994,0.003945522010399997,0.01911039650442,0.08069229126,12.72000002861023
0.0,0.0,2.0699999999999994,0.003945522010399997,0.01911039650442,0.08069229126,12.769999980926514
0.0,0.0,2.0699999999999994,0.003945522010399997,0.01911039650442,0.08069229126,12.829999923706055
0.0,0.0,2.079999999999999,-0.0141457878053,0.026798824779699998,0.08854347467400003,12.879999876022339
0.0,0.0,2.079999999999999,-0.0141457878053,0.026798824779699998,0.08854347467400003,12.930000066757202
0.0,0.0,2.079999999999999,-0.0141457878053,0.026798824779699998,0.08854347467400003,12.980000019073486
0.0,0.0,2.079999999999999,-0.0141457878053,0.026798824779699998,0.08854347467400003,13.039999961853027
0.0,0.0,2.079999999999999,-0.0141457878053,0.026798824779699998,0.08854347467400003,13.089999914169312
0.0,0.0,2.0599999999999996,-0.044947233051000006,0.0330444378779,0.10018843412400003,13.150000095367432
0.0,0.0,2.0599999999999996,-0.044947233051000006,0.0330444378779,0.10018843412400003,13.200000047683716
0.0,0.0,2.0599999999999996,-0.044947233051000006,0.0330444378779,0.10018843412400003,13.25
0.0,0.0,2.0599999999999996,-0.044947233051000006,0.0330444378779,0.10018843412400003,13.299999952316284
0.0,0.0,2.0599999999999996,-0.053072538226800005,0.0341065162793,0.109101831915,13.359999895095825
0.0,0.0,2.0599999999999996,-0.053072538226800005,0.0341065162793,0.109101831915,13.410000085830688
0.0,0.0,2.0599999999999996,-0.053072538226800005,0.0341065162793,0.109101831915,13.460000038146973
0.0,0.0,2.0599999999999996,-0.053072538226800005,0.0341065162793,0.109101831915,13.509999990463257
0.0,0.0,2.0599999999999996,-0.053072538226800005,0.0341065162793,0.109101831915,13.569999933242798
0.0,0.0,2.0900000000000007,-0.0477414987981,0.0313950302079,0.11771732568500004,13.619999885559082
0.0,0.0,2.0900000000000007,-0.0477414987981,0.0313950302079,0.11771732568500004,13.670000076293945
0.0,0.0,2.0900000000000007,-0.0477414987981,0.0313950302079,0.11771732568500004,13.72000002861023
0.0,0.0,2.0900000000000007,-0.0477414987981,0.0313950302079,0.11771732568500004,13.77999997138977
0.0,0.0,2.0900000000000007,-0.0477414987981,0.0313950302079,0.11771732568500004,13.829999923706055
0.0,0.0,2.0900000000000007,-0.0477414987981,0.0313950302079,0.11771732568500004,13.879999876022339
0.0,0.0,2.0900000000000007,-0.0477414987981,0.0313950302079,0.11771732568500004,13.940000057220459
0.0,0.0,2.1000000000000005,-0.0523488782346,0.0338347079233,0.12438207864499995,13.990000009536743
0.0,0.0,2.1000000000000005,-0.0523488782346,0.0338347079233,0.12438207864499995,14.039999961853027
0.0,0.0,2.1000000000000005,-0.0523488782346,0.0338347079233,0.12438207864499995,14.099999904632568
0.0,0.0,2.1000000000000005,-0.0523488782346,0.0338347079233,0.12438207864499995,14.150000095367432
0.0,0.0,2.12,-0.0572669319808,0.0295036667958,0.12885862588500008,14.200000047683716
0.0,0.0,2.12,-0.0572669319808,0.0295036667958,0.12885862588500008,14.25
0.0,0.0,2.12,-0.0572669319808,0.0295036667958,0.12885862588500008,14.299999952316284
0.0,0.0,2.12,-0.060847353190100005,0.028174564242400002,0.13575857877500008,14.359999895095825
0.0,0.0,2.12,-0.060847353190100005,0.028174564242400002,0.13575857877500008,14.410000085830688
0.0,0.0,2.1399999999999997,-0.060847353190100005,0.028174564242400002,0.13575857877500008,14.460000038146973
0.0,0.0,2.1399999999999997,-0.060847353190100005,0.028174564242400002,0.13575857877500008,14.509999990463257
0.0,0.0,2.1399999999999997,-0.060847353190100005,0.028174564242400002,0.13575857877500008,14.569999933242798
0.0,0.0,2.1399999999999997,-0.060847353190100005,0.028174564242400002,0.13575857877500008,14.619999885559082
0.0,0.0,2.1399999999999997,-0.0607285611331,0.026062932796799998,0.14138680696500006,14.670000076293945
0.0,0.0,2.1399999999999997,-0.0607285611331,0.026062932796799998,0.14138680696500006,14.72000002861023
0.0,0.0,2.1399999999999997,-0.0607285611331,0.026062932796799998,0.14138680696500006,14.77999997138977
0.0,0.0,2.1399999999999997,-0.0607285611331,0.026062932796799998,0.14138680696500006,14.829999923706055
0.0,0.0,2.1399999999999997,-0.0607285611331,0.026062932796799998,0.14138680696500006,14.890000104904175
0.0,0.0,2.1399999999999997,-0.0607285611331,0.026062932796799998,0.14138680696500006,14.940000057220459
0.0,0.0,2.1499999999999995,-0.0624742396175,0.02128528244795,0.14833217859499992,14.990000009536743
0.0,0.0,2.1499999999999995,-0.0624742396175,0.02128528244795,0.14833217859499992,15.039999961853027
0.0,0.0,2.1499999999999995,-0.0624742396175,0.02128528244795,0.14833217859499992,15.099999904632568
0.0,0.0,2.1499999999999995,-0.060952309519,0.02159271109851,0.15399616956499995,15.150000095367432
0.0,0.0,2.1499999999999995,-0.060952309519,0.02159271109851,0.15399616956499995,15.210000038146973
0.0,0.0,2.1499999999999995,-0.060952309519,0.02159271109851,0.15399616956499995,15.259999990463257
0.0,0.0,2.1499999999999995,-0.060952309519,0.02159271109851,0.15399616956499995,15.309999942779541
0.0,0.0,2.1499999999999995,-0.060952309519,0.02159271109851,0.15399616956499995,15.359999895095825
0.0,0.0,2.1499999999999995,-0.0673603080213,0.02063670707868,0.16136270761500005,15.410000085830688
0.0,0.0,2.1499999999999995,-0.0673603080213,0.02063670707868,0.16136270761500005,15.47000002861023
0.0,0.0,2.1499999999999995,-0.0673603080213,0.02063670707868,0.16136270761500005,15.519999980926514
0.0,0.0,2.1499999999999995,-0.0673603080213,0.02063670707868,0.16136270761500005,15.569999933242798
0.0,0.0,2.1499999999999995,-0.0673603080213,0.02063670707868,0.16136270761500005,15.619999885559082
0.0,0.0,2.1499999999999995,-0.0578356496989,0.02230344107376,0.163461625575,15.670000076293945
0.0,0.0,2.1499999999999995,-0.0578356496989,0.02230344107376,0.163461625575,15.730000019073486
0.0,0.0,2.1499999999999995,-0.0578356496989,0.02230344107376,0.163461625575,15.77999997138977
0.0,0.0,2.1499999999999995,-0.0578356496989,0.02230344107376,0.163461625575,15.829999923706055
0.0,0.0,2.1499999999999995,-0.0578356496989,0.02230344107376,0.163461625575,15.890000104904175
0.0,0.0,2.1499999999999995,-0.0578356496989,0.02230344107376,0.163461625575,15.940000057220459
0.0,0.0,2.1499999999999995,-0.0578356496989,0.02230344107376,0.163461625575,15.990000009536743
0.0,0.0,2.1499999999999995,-0.057895522564600004,0.02047225693242,0.16322141885499997,16.039999961853027
0.0,0.0,2.1499999999999995,-0.057895522564600004,0.02047225693242,0.16322141885499997,16.08999991416931
0.0,0.0,2.1900000000000004,-0.057437051087600006,0.01975106261672,0.16346925497499998,16.15000009536743
0.0,0.0,2.1900000000000004,-0.057437051087600006,0.01975106261672,0.16346925497499998,16.200000047683716
0.0,0.0,2.1900000000000004,-0.057437051087600006,0.01975106261672,0.16346925497499998,16.259999990463257
0.0,0.0,2.1900000000000004,-0.057437051087600006,0.01975106261672,0.16346925497499998,16.30999994277954
0.0,0.0,2.1900000000000004,-0.057437051087600006,0.01975106261672,0.16346925497499998,16.359999895095825
0.0,0.0,2.1900000000000004,-0.060340296477000004,0.01979537121953,0.16338938474499998,16.420000076293945
0.0,0.0,2.2299999999999995,-0.060340296477000004,0.01979537121953,0.16338938474499998,16.47000002861023
0.0,0.0,2.2299999999999995,-0.060340296477000004,0.01979537121953,0.16338938474499998,16.519999980926514
0.0,0.0,2.2299999999999995,-0.060340296477000004,0.01979537121953,0.16338938474499998,16.579999923706055
0.0,0.0,2.2299999999999995,-0.060340296477000004,0.01979537121953,0.16338938474499998,16.62999987602234
0.0,0.0,2.249999999999999,-0.05724811926480001,0.01699324324729,0.1639928221750001,16.680000066757202
0.0,0.0,2.249999999999999,-0.05724811926480001,0.01699324324729,0.1639928221750001,16.740000009536743
0.0,0.0,2.249999999999999,-0.05724811926480001,0.01699324324729,0.1639928221750001,16.789999961853027
0.0,0.0,2.249999999999999,-0.05724811926480001,0.01699324324729,0.1639928221750001,16.83999991416931
0.0,0.0,2.249999999999999,-0.05724811926480001,0.01699324324729,0.1639928221750001,16.90000009536743
0.0,0.0,2.249999999999999,-0.05724811926480001,0.01699324324729,0.1639928221750001,16.950000047683716
0.0,0.0,2.249999999999999,-0.05724811926480001,0.01699324324729,0.1639928221750001,17.0
0.0,0.0,2.249999999999999,-0.0558619834482,0.020974705927089998,0.16524475812499995,17.05999994277954
0.0,0.0,2.249999999999999,-0.0558619834482,0.020974705927089998,0.16524475812499995,17.109999895095825
0.0,0.0,2.2299999999999995,-0.0482321642339,0.02026916202159,0.16501444578500013,17.170000076293945
0.0,0.0,2.2299999999999995,-0.0482321642339,0.02026916202159,0.16501444578500013,17.22000002861023
0.0,0.0,2.2299999999999995,-0.0482321642339,0.02026916202159,0.16501444578500013,17.269999980926514
0.0,0.0,2.2299999999999995,-0.0482321642339,0.02026916202159,0.16501444578500013,17.319999933242798
0.0,0.0,2.2299999999999995,-0.0482321642339,0.02026916202159,0.16501444578500013,17.369999885559082
0.0,0.0,2.2299999999999995,-0.0482321642339,0.02026916202159,0.16501444578500013,17.430000066757202
0.0,0.0,2.2199999999999998,-0.04593567177650001,0.023390269838289998,0.16436725854500012,17.480000019073486
0.0,0.0,2.2199999999999998,-0.04593567177650001,0.023390269838289998,0.16436725854500012,17.539999961853027
0.0,0.0,2.2199999999999998,-0.04593567177650001,0.023390269838289998,0.16436725854500012,17.58999991416931
0.0,0.0,2.2199999999999998,-0.04593567177650001,0.023390269838289998,0.16436725854500012,17.640000104904175
0.0,0.0,2.2,-0.0461712069809,0.02083224384116,0.1643545031550001,17.700000047683716
0.0,0.0,2.2,-0.0461712069809,0.02083224384116,0.1643545031550001,17.75
0.0,0.0,2.2,-0.0461712069809,0.02083224384116,0.1643545031550001,17.799999952316284
0.0,0.0,2.2,-0.0461712069809,0.02083224384116,0.1643545031550001,17.859999895095825
0.0,0.0,2.2,-0.0461712069809,0.02083224384116,0.1643545031550001,17.91000008583069
0.0,0.0,2.2,-0.0461712069809,0.02083224384116,0.1643545031550001,17.960000038146973
0.0,0.0,2.2,-0.0461712069809,0.02083224384116,0.1643545031550001,18.019999980926514
0.0,0.0,2.2,-0.0461712069809,0.02083224384116,0.1643545031550001,18.069999933242798
0.0,0.0,2.2199999999999998,-0.0404406897723,0.02189640840517,0.1634436249750001,18.119999885559082
0.0,0.0,2.249999999999999,-0.0305135808885,0.0387689592317,0.16406732797500012,18.180000066757202
0.0,0.0,2.249999999999999,-0.0305135808885,0.0387689592317,0.16406732797500012,18.230000019073486
0.0,0.0,2.249999999999999,-0.0305135808885,0.0387689592317,0.16406732797500012,18.289999961853027
0.0,0.0,2.249999999999999,-0.0305135808885,0.0387689592317,0.16406732797500012,18.33999991416931
0.0,0.0,2.249999999999999,-0.0305135808885,0.0387689592317,0.16406732797500012,18.390000104904175
0.0,0.0,2.249999999999999,-0.0305135808885,0.0387689592317,0.16406732797500012,18.450000047683716
0.0,0.0,2.3,-0.0260824263095,0.0537585513666,0.16195780038500007,18.5
0.0,0.0,2.3,-0.0260824263095,0.0537585513666,0.16195780038500007,18.55999994277954
0.0,0.0,2.3,-0.0260824263095,0.0537585513666,0.16195780038500007,18.609999895095825
0.0,0.0,2.38,-0.0241034999489,0.049904447980199995,0.1636951565750001,18.670000076293945
0.0,0.0,2.38,-0.0241034999489,0.049904447980199995,0.1636951565750001,18.72000002861023
0.0,0.0,2.38,-0.0241034999489,0.049904447980199995,0.1636951565750001,18.769999980926514
0.0,0.0,2.38,-0.0241034999489,0.049904447980199995,0.1636951565750001,18.829999923706055
0.0,0.0,2.38,-0.0241034999489,0.049904447980199995,0.1636951565750001,18.87999987602234
0.0,0.0,2.38,-0.0241034999489,0.049904447980199995,0.1636951565750001,18.94000005722046
0.0,0.0,2.38,-0.0241034999489,0.049904447980199995,0.1636951565750001,18.990000009536743
0.0,0.0,2.38,-0.0241034999489,0.049904447980199995,0.1636951565750001,19.039999961853027
0.0,0.0,2.38,-0.0241034999489,0.049904447980199995,0.1636951565750001,19.09999990463257
0.0,0.0,2.4899999999999993,-0.023008368909300005,0.0395990060643,0.16283291578500003,19.15000009536743
0.0,0.0,2.6000000000000005,-0.016213953495000002,0.049027786590200004,0.16365641355499994,19.200000047683716
0.0,0.0,2.6000000000000005,-0.016213953495000002,0.049027786590200004,0.16365641355499994,19.259999990463257
0.0,0.0,2.6000000000000005,-0.016213953495000002,0.049027786590200004,0.16365641355499994,19.30999994277954
0.0,0.0,2.6000000000000005,-0.016213953495000002,0.049027786590200004,0.16365641355499994,19.369999885559082
0.0,0.0,2.6000000000000005,-0.016213953495000002,0.049027786590200004,0.16365641355499994,19.420000076293945
0.0,0.0,2.6000000000000005,-0.016213953495000002,0.049027786590200004,0.16365641355499994,19.47000002861023
0.0,0.0,2.6000000000000005,-0.016213953495000002,0.049027786590200004,0.16365641355499994,19.519999980926514
0.0,0.0,2.6000000000000005,-0.016213953495000002,0.049027786590200004,0.16365641355499994,19.579999923706055
0.0,0.0,2.63,-0.012066002935100004,0.0712458426133,0.1625160574950001,19.62999987602234
0.0,0.0,2.63,-0.012066002935100004,0.0712458426133,0.1625160574950001,19.680000066757202
0.0,0.0,2.6399999999999997,-0.006398810073700002,0.09836846683179999,0.162810504435,19.730000019073486
0.0,0.0,2.6399999999999997,-0.006398810073700002,0.09836846683179999,0.162810504435,19.77999997138977
0.0,0.0,2.6399999999999997,-0.006398810073700002,0.09836846683179999,0.162810504435,19.83999991416931
0.0,0.0,2.6399999999999997,-0.006398810073700002,0.09836846683179999,0.162810504435,19.890000104904175
0.0,0.0,2.6399999999999997,-0.006398810073700002,0.09836846683179999,0.162810504435,19.94000005722046
0.0,0.0,2.6000000000000005,-0.0008137915283000022,0.08321263734249999,0.16178029775500014,20.0
0.0,0.0,2.6000000000000005,-0.0008137915283000022,0.08321263734249999,0.16178029775500014,20.049999952316284
0.0,0.0,2.6000000000000005,-0.0008137915283000022,0.08321263734249999,0.16178029775500014,20.09999990463257
0.0,0.0,2.6000000000000005,-0.0008137915283000022,0.08321263734249999,0.16178029775500014,20.16000008583069
0.0,0.0,2.6000000000000005,-0.0008137915283000022,0.08321263734249999,0.16178029775500014,20.210000038146973
0.0,0.0,2.6000000000000005,-0.0012422651052000008,0.0782945910469,0.162318527695,20.259999990463257
0.0,0.0,2.6000000000000005,-0.0012422651052000008,0.0782945910469,0.162318527695,20.30999994277954
0.0,0.0,2.6000000000000005,-0.0012422651052000008,0.0782945910469,0.162318527695,20.369999885559082
0.0,0.0,2.6000000000000005,-0.0012422651052000008,0.0782945910469,0.162318527695,20.420000076293945
0.0,0.0,2.6000000000000005,-0.0012422651052000008,0.0782945910469,0.162318527695,20.47000002861023
0.0,0.0,2.63,-0.0020887833088000032,0.0807883525267,0.15989416837500003,20.52999997138977
0.0,0.0,2.63,-0.0020887833088000032,0.0807883525267,0.15989416837500003,20.579999923706055
0.0,0.0,2.63,-0.0020887833088000032,0.0807883525267,0.15989416837500003,20.62999987602234
0.0,0.0,2.6800000000000006,-0.0027483422309000013,0.0868676165119,0.15741664171500014,20.69000005722046
0.0,0.0,2.6800000000000006,-0.0027483422309000013,0.0868676165119,0.15741664171500014,20.740000009536743
0.0,0.0,2.6800000000000006,-0.0027483422309000013,0.0868676165119,0.15741664171500014,20.789999961853027
0.0,0.0,2.6800000000000006,-0.0027483422309000013,0.0868676165119,0.15741664171500014,20.83999991416931
0.0,0.0,2.6800000000000006,-0.0027483422309000013,0.0868676165119,0.15741664171500014,20.90000009536743
0.0,0.0,2.6800000000000006,-0.0027483422309000013,0.0868676165119,0.15741664171500014,20.950000047683716
0.0,0.0,2.7399999999999993,-0.0053507909178,0.0767433689907,0.1479956507650001,21.0
0.0,0.0,2.7399999999999993,-0.0053507909178,0.0767433689907,0.1479956507650001,21.049999952316284
0.0,0.0,2.7399999999999993,-0.0053507909178,0.0767433689907,0.1479956507650001,21.109999895095825
0.0,0.0,2.7399999999999993,-0.0053507909178,0.0767433689907,0.1479956507650001,21.16000008583069
0.0,0.0,2.7399999999999993,-0.0053507909178,0.0767433689907,0.1479956507650001,21.210000038146973
0.0,0.0,2.7399999999999993,-0.0053507909178,0.0767433689907,0.1479956507650001,21.259999990463257
0.0,0.0,2.7399999999999993,-0.0053507909178,0.0767433689907,0.1479956507650001,21.319999933242798
0.0,0.0,2.8099999999999996,-0.005227681249300002,0.0725905755535,0.1402103304850001,21.369999885559082
0.0,0.0,2.8099999999999996,-0.005227681249300002,0.0725905755535,0.1402103304850001,21.420000076293945
0.0,0.0,2.8099999999999996,-0.005227681249300002,0.0725905755535,0.1402103304850001,21.480000019073486
0.0,0.0,2.8600000000000003,-0.002035988494700002,0.0684486413375,0.13607543706500003,21.52999997138977
0.0,0.0,2.8600000000000003,-0.002035988494700002,0.0684486413375,0.13607543706500003,21.58999991416931
0.0,0.0,2.8600000000000003,-0.002035988494700002,0.0684486413375,0.13607543706500003,21.640000104904175
0.0,0.0,2.8600000000000003,-0.002035988494700002,0.0684486413375,0.13607543706500003,21.69000005722046
0.0,0.0,2.8600000000000003,-0.002035988494700002,0.0684486413375,0.13607543706500003,21.740000009536743
0.0,0.0,2.8999999999999995,0.0018285214900999984,0.0696926610544,0.13108009099499995,21.789999961853027
0.0,0.0,2.8999999999999995,0.0018285214900999984,0.0696926610544,0.13108009099499995,21.84999990463257
0.0,0.0,2.8999999999999995,0.0018285214900999984,0.0696926610544,0.13108009099499995,21.90000009536743
0.0,0.0,2.8999999999999995,0.0018285214900999984,0.0696926610544,0.13108009099499995,21.950000047683716
0.0,0.0,2.9300000000000006,0.0352119319141,0.044307791628,0.12742167711499996,22.009999990463257
0.0,0.0,2.9300000000000006,0.0352119319141,0.044307791628,0.12742167711499996,22.05999994277954
0.0,0.0,2.9300000000000006,0.0352119319141,0.044307791628,0.12742167711499996,22.109999895095825
0.0,0.0,2.9300000000000006,0.0352119319141,0.044307791628,0.12742167711499996,22.16000008583069
0.0,0.0,2.9300000000000006,0.0352119319141,0.044307791628,0.12742167711499996,22.210000038146973
0.0,0.0,2.9300000000000006,0.0352119319141,0.044307791628,0.12742167711499996,22.269999980926514
0.0,0.0,2.9300000000000006,0.0352119319141,0.044307791628,0.12742167711499996,22.319999933242798
0.0,0.0,2.9300000000000006,0.0352119319141,0.044307791628,0.12742167711499996,22.369999885559082
0.0,0.0,2.9799999999999995,0.0851904340089,0.0263636475429,0.12473219633499999,22.430000066757202
0.0,0.0,2.9799999999999995,0.0851904340089,0.0263636475429,0.12473219633499999,22.480000019073486
0.0,0.0,3.0300000000000002,0.0888023935259,0.031688095070400005,0.12064427137500011,22.539999961853027
0.0,0.0,3.0300000000000002,0.0888023935259,0.031688095070400005,0.12064427137500011,22.58999991416931
0.0,0.0,3.0300000000000002,0.0888023935259,0.031688095070400005,0.12064427137500011,22.640000104904175
0.0,0.0,3.0300000000000002,0.0888023935259,0.031688095070400005,0.12064427137500011,22.700000047683716
0.0,0.0,3.0300000000000002,0.0888023935259,0.031688095070400005,0.12064427137500011,22.75
0.0,0.0,3.1100000000000003,0.0951892249287,0.043626909144200005,0.12011557817499996,22.799999952316284
0.0,0.0,3.1100000000000003,0.0951892249287,0.043626909144200005,0.12011557817499996,22.84999990463257
0.0,0.0,3.1100000000000003,0.0951892249287,0.043626909144200005,0.12011557817499996,22.91000008583069
0.0,0.0,3.1100000000000003,0.0951892249287,0.043626909144200005,0.12011557817499996,22.960000038146973
0.0,0.0,3.2,0.11379122361550001,0.0731863202527,0.12126523256499999,23.009999990463257
0.0,0.0,3.2,0.11379122361550001,0.0731863202527,0.12126523256499999,23.069999933242798
0.0,0.0,3.2,0.11379122361550001,0.0731863202527,0.12126523256499999,23.119999885559082
0.0,0.0,3.2,0.11379122361550001,0.0731863202527,0.12126523256499999,23.170000076293945
0.0,0.0,3.2,0.11379122361550001,0.0731863202527,0.12126523256499999,23.22000002861023
0.0,0.0,3.2,0.11379122361550001,0.0731863202527,0.12126523256499999,23.269999980926514
0.0,0.0,3.2,0.11379122361550001,0.0731863202527,0.12126523256499999,23.319999933242798
0.0,0.0,3.3,0.10851537808779999,0.0826573604718,0.1203542351750001,23.369999885559082
0.0,0.0,3.3,0.10851537808779999,0.0826573604718,0.1203542351750001,23.420000076293945
0.0,0.0,3.3,0.10851537808779999,0.0826573604718,0.1203542351750001,23.480000019073486
0.0,0.0,3.419999999999999,0.12101934477689999,0.0804842570797,0.11858671903499995,23.52999997138977
0.0,0.0,3.419999999999999,0.12101934477689999,0.0804842570797,0.11858671903499995,23.579999923706055
0.0,0.0,3.419999999999999,0.12101934477689999,0.0804842570797,0.11858671903499995,23.640000104904175
0.0,0.0,3.419999999999999,0.12101934477689999,0.0804842570797,0.11858671903499995,23.69000005722046
0.0,0.0,3.419999999999999,0.12101934477689999,0.0804842570797,0.11858671903499995,23.740000009536743
0.0,0.0,3.419999999999999,0.12101934477689999,0.0804842570797,0.11858671903499995,23.789999961853027
0.0,0.0,3.5699999999999994,0.1111245565117,0.0818022647873,0.11267799139500012,23.84999990463257
0.0,0.0,3.5699999999999994,0.1111245565117,0.0818022647873,0.11267799139500012,23.90000009536743
0.0,0.0,3.5699999999999994,0.1111245565117,0.0818022647873,0.11267799139500012,23.960000038146973
0.0,0.0,3.669999999999999,0.10590654239059999,0.08760203514249999,0.09837764501599999,24.009999990463257
0.0,0.0,3.669999999999999,0.10590654239059999,0.08760203514249999,0.09837764501599999,24.05999994277954
0.0,0.0,3.669999999999999,0.10590654239059999,0.08760203514249999,0.09837764501599999,24.109999895095825
0.0,0.0,3.669999999999999,0.10590654239059999,0.08760203514249999,0.09837764501599999,24.16000008583069
0.0,0.0,3.669999999999999,0.10590654239059999,0.08760203514249999,0.09837764501599999,24.210000038146973
0.0,0.0,3.669999999999999,0.10590654239059999,0.08760203514249999,0.09837764501599999,24.269999980926514
0.0,0.0,3.669999999999999,0.10590654239059999,0.08760203514249999,0.09837764501599999,24.319999933242798
0.0,0.0,3.669999999999999,0.10590654239059999,0.08760203514249999,0.09837764501599999,24.369999885559082
0.0,0.0,3.7700000000000005,0.10798505321150001,0.061510977335300004,0.09927082061800008,24.420000076293945
0.0,0.0,3.8099999999999996,0.1149642132223,0.0443373555318,0.09852313995400008,24.480000019073486
0.0,0.0,3.8099999999999996,0.1149642132223,0.0443373555318,0.09852313995400008,24.52999997138977
0.0,0.0,3.8099999999999996,0.1149642132223,0.0443373555318,0.09852313995400008,24.579999923706055
0.0,0.0,3.8099999999999996,0.1149642132223,0.0443373555318,0.09852313995400008,24.640000104904175
0.0,0.0,3.8099999999999996,0.1149642132223,0.0443373555318,0.09852313995400008,24.69000005722046
0.0,0.0,3.8099999999999996,0.1149642132223,0.0443373555318,0.09852313995400008,24.740000009536743
0.0,0.0,3.87,0.09709999337799999,0.0412124702707,0.09837800264399998,24.789999961853027
0.0,0.0,3.87,0.09709999337799999,0.0412124702707,0.09837800264399998,24.84999990463257
0.0,0.0,3.87,0.09709999337799999,0.0412124702707,0.09837800264399998,24.90000009536743
0.0,0.0,3.87,0.09709999337799999,0.0412124702707,0.09837800264399998,24.950000047683716
0.0,0.0,3.87,0.09709999337799999,0.0412124702707,0.09837800264399998,25.009999990463257
0.0,0.0,3.9300000000000006,0.09709999337799999,0.0412124702707,0.09837800264399998,25.05999994277954
0.0,0.0,3.9300000000000006,0.08823918178679999,0.051583708263999994,0.09968382120100006,25.109999895095825
0.0,0.0,3.9300000000000006,0.08823918178679999,0.051583708263999994,0.09968382120100006,25.170000076293945
0.0,0.0,3.9300000000000006,0.08823918178679999,0.051583708263999994,0.09968382120100006,25.22000002861023
0.0,0.0,3.9300000000000006,0.08823918178679999,0.051583708263999994,0.09968382120100006,25.269999980926514
0.0,0.0,3.9300000000000006,0.08823918178679999,0.051583708263999994,0.09968382120100006,25.319999933242798
0.0,0.0,3.9300000000000006,0.08823918178679999,0.051583708263999994,0.09968382120100006,25.369999885559082
0.0,0.0,3.9300000000000006,0.08823918178679999,0.051583708263999994,0.09968382120100006,25.430000066757202
0.0,0.0,3.999999999999999,0.1073280833662,0.0859257886186,0.09832137823100007,25.480000019073486
0.0,0.0,3.999999999999999,0.1073280833662,0.0859257886186,0.09832137823100007,25.52999997138977
0.0,0.0,3.999999999999999,0.1073280833662,0.0859257886186,0.09832137823100007,25.58999991416931
0.0,0.0,4.03,0.10961064323789999,0.111356147565,0.09761780500400008,25.640000104904175
0.0,0.0,4.03,0.10961064323789999,0.111356147565,0.09761780500400008,25.69000005722046
0.0,0.0,4.03,0.10961064323789999,0.111356147565,0.09761780500400008,25.75
0.0,0.0,4.03,0.10961064323789999,0.111356147565,0.09761780500400008,25.799999952316284
0.0,0.0,4.03,0.10961064323789999,0.111356147565,0.09761780500400008,25.84999990463257
0.0,0.0,4.05,0.102168250829,0.1274162987248,0.09676098823599999,25.91000008583069
0.0,0.0,4.05,0.102168250829,0.1274162987248,0.09676098823599999,25.960000038146973
0.0,0.0,4.05,0.102168250829,0.1274162987248,0.09676098823599999,26.009999990463257
0.0,0.0,4.05,0.102168250829,0.1274162987248,0.09676098823599999,26.069999933242798
0.0,0.0,4.069999999999999,0.0931982658804,0.1359270969408,0.09629082679800005,26.119999885559082
0.0,0.0,4.069999999999999,0.0931982658804,0.1359270969408,0.09629082679800005,26.170000076293945
0.0,0.0,4.069999999999999,0.0931982658804,0.1359270969408,0.09629082679800005,26.22000002861023
0.0,0.0,4.069999999999999,0.0931982658804,0.1359270969408,0.09629082679800005,26.269999980926514
0.0,0.0,4.069999999999999,0.0931982658804,0.1359270969408,0.09629082679800005,26.319999933242798
0.0,0.0,4.069999999999999,0.0931982658804,0.1359270969408,0.09629082679800005,26.369999885559082
0.0,0.0,4.069999999999999,0.0931982658804,0.1359270969408,0.09629082679800005,26.430000066757202
0.0,0.0,4.069999999999999,0.0931982658804,0.1359270969408,0.09629082679800005,26.480000019073486
0.0,0.0,4.079999999999999,0.09606830403210001,0.14151319209479998,0.09593367576599998,26.52999997138977
0.0,0.0,4.079999999999999,0.09606830403210001,0.14151319209479998,0.09593367576599998,26.58999991416931
0.0,0.0,4.03,0.11398992314939999,0.12393359187979999,0.09690135717400006,26.640000104904175
0.0,0.0,4.03,0.11398992314939999,0.12393359187979999,0.09690135717400006,26.69000005722046
0.0,0.0,4.03,0.11398992314939999,0.12393359187979999,0.09690135717400006,26.75
0.0,0.0,4.03,0.11398992314939999,0.12393359187979999,0.09690135717400006,26.799999952316284
0.0,0.0,4.03,0.11398992314939999,0.12393359187979999,0.09690135717400006,26.84999990463257
0.0,0.0,3.8899999999999997,0.11977241560820001,0.1178107568998,0.09728175401700001,26.91000008583069
0.0,0.0,3.8899999999999997,0.11977241560820001,0.1178107568998,0.09728175401700001,26.960000038146973
0.0,0.0,3.8899999999999997,0.11977241560820001,0.1178107568998,0.09728175401700001,27.009999990463257
0.0,0.0,3.8899999999999997,0.11977241560820001,0.1178107568998,0.09728175401700001,27.069999933242798
0.0,0.0,3.7199999999999998,0.10427724942569999,0.11826309654879999,0.09482890367500008,27.119999885559082
0.0,0.0,3.7199999999999998,0.10427724942569999,0.11826309654879999,0.09482890367500008,27.170000076293945
0.0,0.0,3.7199999999999998,0.10427724942569999,0.11826309654879999,0.09482890367500008,27.22000002861023
0.0,0.0,3.7199999999999998,0.10427724942569999,0.11826309654879999,0.09482890367500008,27.269999980926514
0.0,0.0,3.7199999999999998,0.10427724942569999,0.11826309654879999,0.09482890367500008,27.319999933242798
0.0,0.0,3.7199999999999998,0.10427724942569999,0.11826309654879999,0.09482890367500008,27.37999987602234
0.0,0.0,3.7199999999999998,0.10427724942569999,0.11826309654879999,0.09482890367500008,27.430000066757202
0.0,0.0,3.7199999999999998,0.10427724942569999,0.11826309654879999,0.09482890367500008,27.480000019073486
0.0,0.0,3.5300000000000002,0.08807599172,0.1114390874282,0.09544223547000008,27.52999997138977
0.0,0.0,3.37,0.0660029388965,0.1010714555159,0.09403860569,27.58999991416931
0.0,0.0,3.37,0.0660029388965,0.1010714555159,0.09403860569,27.640000104904175
0.0,0.0,3.37,0.0660029388965,0.1010714555159,0.09403860569,27.69000005722046
0.0,0.0,3.37,0.0660029388965,0.1010714555159,0.09403860569,27.740000009536743
0.0,0.0,3.37,0.0660029388965,0.1010714555159,0.09403860569,27.789999961853027
0.0,0.0,3.37,0.0660029388965,0.1010714555159,0.09403860569,27.83999991416931
0.0,0.0,3.37,0.0660029388965,0.1010714555159,0.09403860569,27.90000009536743
0.0,0.0,3.37,0.0660029388965,0.1010714555159,0.09403860569,27.950000047683716
0.0,0.0,3.2399999999999993,0.0521900393069,0.1058740401641,0.09309989213900005,28.009999990463257
0.0,0.0,3.2399999999999993,0.0521900393069,0.1058740401641,0.09309989213900005,28.05999994277954
0.0,0.0,3.2399999999999993,0.0521900393069,0.1058740401641,0.09309989213900005,28.109999895095825
0.0,0.0,3.1499999999999995,0.0365316458047,0.1077791014686,0.09352618455900008,28.16000008583069
0.0,0.0,3.1499999999999995,0.0365316458047,0.1077791014686,0.09352618455900008,28.210000038146973
0.0,0.0,3.1499999999999995,0.0365316458047,0.1077791014686,0.09352618455900008,28.269999980926514
0.0,0.0,3.1499999999999995,0.0365316458047,0.1077791014686,0.09352618455900008,28.319999933242798
0.0,0.0,3.1499999999999995,0.0365316458047,0.1077791014686,0.09352618455900008,28.369999885559082
0.0,0.0,3.1499999999999995,0.0365316458047,0.1077791014686,0.09352618455900008,28.430000066757202
0.0,0.0,3.1499999999999995,0.0365316458047,0.1077791014686,0.09352618455900008,28.480000019073486
0.0,0.0,3.1499999999999995,0.0365316458047,0.1077791014686,0.09352618455900008,28.52999997138977
0.0,0.0,3.1499999999999995,0.0365316458047,0.1077791014686,0.09352618455900008,28.579999923706055
0.0,0.0,3.05,0.014727387577339998,0.0951671609655,0.09244400262800001,28.62999987602234
0.0,0.0,3.05,0.014727387577339998,0.0951671609655,0.09244400262800001,28.69000005722046
0.0,0.0,3.05,0.014727387577339998,0.0951671609655,0.09244400262800001,28.740000009536743
0.0,0.0,3.05,0.014727387577339998,0.0951671609655,0.09244400262800001,28.789999961853027
0.0,0.0,3.05,0.014727387577339998,0.0951671609655,0.09244400262800001,28.84999990463257
0.0,0.0,3.05,0.014727387577339998,0.0951671609655,0.09244400262800001,28.90000009536743
0.0,0.0,2.999999999999999,-0.008555930107800001,0.0657761702314,0.09130620956400004,28.950000047683716
0.0,0.0,2.999999999999999,-0.008555930107800001,0.0657761702314,0.09130620956400004,29.0
0.0,0.0,2.999999999999999,-0.008555930107800001,0.0657761702314,0.09130620956400004,29.05999994277954
0.0,0.0,2.9799999999999995,-0.029505163431100004,0.0548641430214,0.092373132706,29.109999895095825
0.0,0.0,2.9799999999999995,-0.029505163431100004,0.0548641430214,0.092373132706,29.16000008583069
0.0,0.0,2.9799999999999995,-0.029505163431100004,0.0548641430214,0.092373132706,29.210000038146973
0.0,0.0,2.9799999999999995,-0.029505163431100004,0.0548641430214,0.092373132706,29.259999990463257
0.0,0.0,2.9799999999999995,-0.029505163431100004,0.0548641430214,0.092373132706,29.319999933242798
0.0,0.0,2.9799999999999995,-0.029505163431100004,0.0548641430214,0.092373132706,29.369999885559082
0.0,0.0,2.9300000000000006,-0.07244348898530001,0.0519584426657,0.09269016981099998,29.420000076293945
0.0,0.0,2.9300000000000006,-0.07244348898530001,0.0519584426657,0.09269016981099998,29.480000019073486
0.0,0.0,2.9300000000000006,-0.07244348898530001,0.0519584426657,0.09269016981099998,29.52999997138977
0.0,0.0,2.9300000000000006,-0.07244348898530001,0.0519584426657,0.09269016981099998,29.579999923706055
0.0,0.0,2.9300000000000006,-0.07244348898530001,0.0519584426657,0.09269016981099998,29.640000104904175
0.0,0.0,2.88,-0.08524550124960001,0.049220983870299995,0.09235852956800006,29.69000005722046
0.0,0.0,2.88,-0.08524550124960001,0.049220983870299995,0.09235852956800006,29.75
0.0,0.0,2.88,-0.08524550124960001,0.049220983870299995,0.09235852956800006,29.799999952316284
0.0,0.0,2.88,-0.08524550124960001,0.049220983870299995,0.09235852956800006,29.84999990463257
0.0,0.0,2.8,-0.1205498538906,0.0396989481524,0.09455674886700005,29.91000008583069
0.0,0.0,2.8,-0.1205498538906,0.0396989481524,0.09455674886700005,29.960000038146973
0.0,0.0,2.8,-0.1205498538906,0.0396989481524,0.09455674886700005,30.009999990463257
0.0,0.0,2.8,-0.1205498538906,0.0396989481524,0.09455674886700005,30.05999994277954
0.0,0.0,2.8,-0.1205498538906,0.0396989481524,0.09455674886700005,30.109999895095825
0.0,0.0,2.8,-0.1205498538906,0.0396989481524,0.09455674886700005,30.170000076293945
0.0,0.0,2.71,-0.13987534865759998,0.0344470748678,0.09363520145400006,30.22000002861023
0.0,0.0,2.71,-0.13987534865759998,0.0344470748678,0.09363520145400006,30.269999980926514
0.0,0.0,2.71,-0.13987534865759998,0.0344470748678,0.09363520145400006,30.319999933242798
0.0,0.0,2.71,-0.13987534865759998,0.0344470748678,0.09363520145400006,30.37999987602234
0.0,0.0,2.63,-0.13987534865759998,0.0344470748678,0.09363520145400006,30.430000066757202
0.0,0.0,2.63,-0.13987534865759998,0.0344470748678,0.09363520145400006,30.480000019073486
0.0,0.0,2.63,-0.13987534865759998,0.0344470748678,0.09363520145400006,30.539999961853027
0.0,0.0,2.63,-0.13987534865759998,0.0344470748678,0.09363520145400006,30.58999991416931
0.0,0.0,2.63,-0.13987534865759998,0.0344470748678,0.09363520145400006,30.640000104904175
0.0,0.0,2.5200000000000005,-0.1683780811726,0.027964618988399997,0.09516119957000002,30.700000047683716
0.0,0.0,2.5200000000000005,-0.1683780811726,0.027964618988399997,0.09516119957000002,30.75
0.0,0.0,2.5200000000000005,-0.1683780811726,0.027964618988399997,0.09516119957000002,30.799999952316284
0.0,0.0,2.5200000000000005,-0.1683780811726,0.027964618988399997,0.09516119957000002,30.859999895095825
0.0,0.0,2.4300000000000006,-0.1683780811726,0.027964618988399997,0.09516119957000002,30.91000008583069
0.0,0.0,2.4300000000000006,-0.1683780811726,0.027964618988399997,0.09516119957000002,30.960000038146973
0.0,0.0,2.4300000000000006,-0.1450011990966,0.0290017090738,0.09645593166400002,31.009999990463257
0.0,0.0,2.4300000000000006,-0.1450011990966,0.0290017090738,0.09645593166400002,31.069999933242798
0.0,0.0,2.4300000000000006,-0.1450011990966,0.0290017090738,0.09645593166400002,31.119999885559082
0.0,0.0,2.3199999999999994,-0.1252434812486,0.028565469197899998,0.09593409299900002,31.180000066757202
0.0,0.0,2.3199999999999994,-0.1252434812486,0.028565469197899998,0.09593409299900002,31.230000019073486
0.0,0.0,2.3199999999999994,-0.1252434812486,0.028565469197899998,0.09593409299900002,31.27999997138977
0.0,0.0,2.3199999999999994,-0.1252434812486,0.028565469197899998,0.09593409299900002,31.33999991416931
