lat,long,alt,pitch,roll,yaw,time
0.0,0.0,0.0,0.0
0.0,0.0,0.0,0.0
0.0,0.0,0.0,0.0
0.0,0.0,0.0,0.0
0.0,0.0,0.0,0.0
0.0,0.0,0.0,0.0
0.0,0.0,-0.020000000000000462,-1.4156100000203842e-07
0.0,0.0,-0.020000000000000462,-1.4156100000203842e-07
0.0,0.0,-0.020000000000000462,-1.4156100000203842e-07
0.0,0.0,-0.020000000000000462,-1.4156100000203842e-07
0.0,0.0,-0.020000000000000462,-1.4156100000203842e-07
0.0,0.0,-0.020000000000000462,-1.4156100000203842e-07
0.0,0.0,-0.020000000000000462,-1.4156100000203842e-07
0.0,0.0,-0.020000000000000462,-1.4156100000203842e-07
0.0,0.0,-0.020000000000000462,-1.4156100000203842e-07
0.0,0.0,-0.020000000000000462,-1.4156100000203842e-07
0.0,0.0,-0.020000000000000462,-1.4156100000203842e-07
0.0,0.0,-0.020000000000000462,-1.4156100000203842e-07
0.0,0.0,-0.020000000000000462,-1.4156100000203842e-07
0.0,0.0,-0.020000000000000462,-1.4156100000203842e-07
0.0,0.0,-0.020000000000000462,-1.4156100000203842e-07
0.0,0.0,-0.020000000000000462,-1.4156100000203842e-07
0.0,0.0,-0.020000000000000462,-1.4156100000203842e-07
0.0,0.0,-0.020000000000000462,-1.4156100000203842e-07
0.0,0.0,-0.020000000000000462,-1.4156100000203842e-07
0.0,0.0,-0.020000000000000462,-1.4156100000203842e-07
0.0,0.0,-0.020000000000000462,-1.4156100000203842e-07
0.0,0.0,-0.020000000000000462,-1.4156100000203842e-07
0.0,0.0,-0.020000000000000462,-1.4156100000203842e-07
0.0,0.0,-0.020000000000000462,-1.4156100000203842e-07
0.0,0.0,-0.020000000000000462,-1.4156100000203842e-07
0.0,0.0,-0.020000000000000462,-1.4156100000203842e-07
0.0,0.0,-0.020000000000000462,-1.4156100000203842e-07
0.0,0.0,-0.020000000000000462,-1.4156100000203842e-07
0.0,0.0,-0.020000000000000462,-1.4156100000203842e-07
0.0,0.0,-0.020000000000000462,-1.4156100000203842e-07
0.0,0.0,-0.020000000000000462,-1.4156100000203842e-07
0.0,0.0,-0.020000000000000462,-1.4156100000203842e-07
0.0,0.0,-0.020000000000000462,-1.4156100000203842e-07
0.0,0.0,-0.020000000000000462,-1.4156100000203842e-07
0.0,0.0,-0.020000000000000462,-1.4156100000203842e-07
0.0,0.0,-0.020000000000000462,-1.4156100000203842e-07
0.0,0.0,-0.020000000000000462,-1.4156100000203842e-07
0.0,0.0,-0.020000000000000462,-1.4156100000203842e-07
0.0,0.0,-0.020000000000000462,-1.4156100000203842e-07
0.0,0.0,-0.020000000000000462,-1.4156100000203842e-07
0.0,0.0,-0.040000000000000036,-0.002637395635200001
0.0,0.0,-0.040000000000000036,-0.002637395635200001
0.0,0.0,-0.040000000000000036,-0.002637395635200001
0.0,0.0,-0.04999999999999982,-0.005118129774900001
0.0,0.0,-0.04999999999999982,-0.005118129774900001
0.0,0.0,-0.04999999999999982,-0.005118129774900001
0.0,0.0,-0.04999999999999982,-0.005118129774900001
0.0,0.0,-0.04999999999999982,-0.005118129774900001
0.0,0.0,-0.04999999999999982,-0.0079143699258
0.0,0.0,-0.04999999999999982,-0.0079143699258
0.0,0.0,-0.07000000000000028,-0.0079143699258
0.0,0.0,-0.07000000000000028,-0.0079143699258
0.0,0.0,-0.07000000000000028,-0.0079143699258
0.0,0.0,-0.07000000000000028,-0.0079143699258
0.0,0.0,-0.10000000000000053,-0.0116848014295
0.0,0.0,-0.10000000000000053,-0.0116848014295
0.0,0.0,-0.10000000000000053,-0.0116848014295
0.0,0.0,-0.10000000000000053,-0.0116848014295
0.0,0.0,-0.10000000000000053,-0.0116848014295
0.0,0.0,-0.10000000000000053,-0.0116848014295
0.0,0.0,-0.10000000000000053,-0.0116848014295
0.0,0.0,-0.1200000000000001,-0.014097508043000001
0.0,0.0,-0.1200000000000001,-0.014097508043000001
0.0,0.0,-0.13999999999999968,-0.016238406300500004
0.0,0.0,-0.13999999999999968,-0.016238406300500004
0.0,0.0,-0.13999999999999968,-0.016238406300500004
0.0,0.0,-0.13999999999999968,-0.016238406300500004
0.0,0.0,-0.13999999999999968,-0.016238406300500004
0.0,0.0,-0.13999999999999968,-0.016238406300500004
0.0,0.0,-0.13999999999999968,-0.016238406300500004
0.0,0.0,-0.16000000000000014,-0.0176720544695
0.0,0.0,-0.16000000000000014,-0.0176720544695
0.0,0.0,-0.16000000000000014,-0.0176720544695
0.0,0.0,-0.17999999999999972,-0.0189683623611
0.0,0.0,-0.17999999999999972,-0.0189683623611
0.0,0.0,-0.17999999999999972,-0.0189683623611
0.0,0.0,-0.17999999999999972,-0.0189683623611
0.0,0.0,-0.17999999999999972,-0.0189683623611
0.0,0.0,-0.17999999999999972,-0.0189683623611
0.0,0.0,-0.17999999999999972,-0.0189683623611
0.0,0.0,-0.17999999999999972,0.008741402998599998
0.0,0.0,-0.17999999999999972,0.008741402998599998
0.0,0.0,-0.20000000000000018,0.0541188828648
0.0,0.0,-0.20000000000000018,0.0541188828648
0.0,0.0,-0.20000000000000018,0.0541188828648
0.0,0.0,-0.20000000000000018,0.0541188828648
0.0,0.0,-0.20000000000000018,0.0541188828648
0.0,0.0,-0.20000000000000018,0.0541188828648
0.0,0.0,-0.1900000000000004,0.0036761369556999983
0.0,0.0,-0.1900000000000004,0.0036761369556999983
0.0,0.0,-0.1900000000000004,0.0036761369556999983
0.0,0.0,-0.1900000000000004,0.0036761369556999983
0.0,0.0,-0.1900000000000004,0.036213438958
0.0,0.0,-0.1900000000000004,0.036213438958
0.0,0.0,-0.17999999999999972,0.036213438958
0.0,0.0,-0.17999999999999972,0.036213438958
0.0,0.0,-0.17999999999999972,0.036213438958
0.0,0.0,-0.17999999999999972,0.036213438958
0.0,0.0,-0.17999999999999972,0.036213438958
0.0,0.0,-0.16000000000000014,0.011578820645899999
0.0,0.0,-0.16000000000000014,0.011578820645899999
0.0,0.0,-0.16000000000000014,0.02202859194954
0.0,0.0,-0.16000000000000014,0.02202859194954
0.0,0.0,-0.16000000000000014,0.02202859194954
0.0,0.0,-0.16000000000000014,0.02202859194954
0.0,0.0,-0.16000000000000014,0.02202859194954
0.0,0.0,-0.16000000000000014,0.02202859194954
0.0,0.0,-0.13999999999999968,0.014541245996999998
0.0,0.0,-0.13999999999999968,0.014541245996999998
0.0,0.0,-0.13999999999999968,0.014541245996999998
0.0,0.0,-0.08999999999999986,-0.004503278061700002
0.0,0.0,-0.08999999999999986,-0.004503278061700002
0.0,0.0,-0.08999999999999986,-0.004503278061700002
0.0,0.0,-0.08999999999999986,-0.004503278061700002
0.0,0.0,-0.08999999999999986,-0.004503278061700002
0.0,0.0,-0.08999999999999986,-0.004503278061700002
0.0,0.0,-0.08999999999999986,-0.004503278061700002
0.0,0.0,-0.08999999999999986,-0.004503278061700002
0.0,0.0,-0.08999999999999986,-0.028478283435100005
0.0,0.0,0.08000000000000007,-0.028478283435100005
0.0,0.0,0.08000000000000007,-0.028478283435100005
0.0,0.0,0.2599999999999998,-0.03900109604
0.0,0.0,0.2599999999999998,-0.03900109604
0.0,0.0,0.2599999999999998,-0.03900109604
0.0,0.0,0.2599999999999998,-0.03900109604
0.0,0.0,0.2599999999999998,-0.03900109604
0.0,0.0,0.2599999999999998,-0.03900109604
0.0,0.0,0.4899999999999993,-0.0390779189765
0.0,0.0,0.4899999999999993,-0.0390779189765
0.0,0.0,0.4899999999999993,-0.0390779189765
0.0,0.0,0.4899999999999993,-0.0390779189765
0.0,0.0,0.6399999999999997,-0.04509618505830001
0.0,0.0,0.6399999999999997,-0.04509618505830001
0.0,0.0,0.6399999999999997,-0.04509618505830001
0.0,0.0,0.6399999999999997,-0.04509618505830001
0.0,0.0,0.6399999999999997,-0.04509618505830001
0.0,0.0,0.6399999999999997,-0.04509618505830001
0.0,0.0,0.6399999999999997,-0.04509618505830001
0.0,0.0,0.6399999999999997,-0.04509618505830001
0.0,0.0,0.6399999999999997,-0.037485782057000004
0.0,0.0,0.8799999999999999,-0.026973567903000005
0.0,0.0,0.8799999999999999,-0.026973567903000005
0.0,0.0,0.8799999999999999,-0.026973567903000005
0.0,0.0,0.8799999999999999,-0.026973567903000005
0.0,0.0,0.9400000000000004,-0.0223920308053
0.0,0.0,0.9400000000000004,-0.0223920308053
0.0,0.0,0.9400000000000004,-0.0223920308053
0.0,0.0,0.9400000000000004,-0.0223920308053
0.0,0.0,0.9400000000000004,-0.0223920308053
0.0,0.0,0.9400000000000004,-0.0223920308053
0.0,0.0,0.9400000000000004,-0.0223920308053
0.0,0.0,0.9400000000000004,-0.0223920308053
0.0,0.0,0.9400000000000004,-0.0223920308053
0.0,0.0,0.9400000000000004,-0.0223920308053
0.0,0.0,1.0100000000000007,-0.010223273187800003
0.0,0.0,1.0100000000000007,-0.010223273187800003
0.0,0.0,1.0100000000000007,-0.010223273187800003
0.0,0.0,1.0100000000000007,-0.010223273187800003
0.0,0.0,1.1100000000000003,-0.010223273187800003
0.0,0.0,1.1100000000000003,-0.010223273187800003
0.0,0.0,1.1100000000000003,-0.010223273187800003
0.0,0.0,1.2499999999999991,-0.0021292846649000018
0.0,0.0,1.2499999999999991,-0.0021292846649000018
0.0,0.0,1.2499999999999991,-0.0021292846649000018
0.0,0.0,1.2499999999999991,-0.0021292846649000018
0.0,0.0,1.2499999999999991,-0.0021292846649000018
0.0,0.0,1.3999999999999995,0.004165552556599998
0.0,0.0,1.3999999999999995,0.004165552556599998
0.0,0.0,1.3999999999999995,0.004165552556599998
0.0,0.0,1.5599999999999996,0.011191605590299998
0.0,0.0,1.5599999999999996,0.011191605590299998
0.0,0.0,1.5599999999999996,0.011191605590299998
0.0,0.0,1.5599999999999996,0.011191605590299998
0.0,0.0,1.5599999999999996,0.011191605590299998
0.0,0.0,1.5599999999999996,0.011191605590299998
0.0,0.0,1.5599999999999996,0.011191605590299998
0.0,0.0,1.5599999999999996,0.011191605590299998
0.0,0.0,1.5599999999999996,0.011191605590299998
0.0,0.0,1.7399999999999993,-0.0312854200601
0.0,0.0,1.7399999999999993,-0.0312854200601
0.0,0.0,1.7399999999999993,-0.0312854200601
0.0,0.0,1.7399999999999993,-0.0312854200601
0.0,0.0,1.7399999999999993,-0.0312854200601
0.0,0.0,1.6399999999999997,-0.0326305255293
0.0,0.0,1.6399999999999997,-0.0326305255293
0.0,0.0,1.6399999999999997,-0.0326305255293
0.0,0.0,1.6399999999999997,-0.0326305255293
0.0,0.0,1.6399999999999997,-0.029990833252600005
0.0,0.0,1.6399999999999997,-0.029990833252600005
0.0,0.0,1.5200000000000005,-0.029990833252600005
0.0,0.0,1.5200000000000005,-0.029990833252600005
0.0,0.0,1.5200000000000005,-0.029990833252600005
0.0,0.0,1.5200000000000005,-0.029990833252600005
0.0,0.0,1.4400000000000004,-0.037047792226
0.0,0.0,1.4400000000000004,-0.037047792226
0.0,0.0,1.4400000000000004,-0.037047792226
0.0,0.0,1.4400000000000004,-0.037047792226
0.0,0.0,1.4400000000000004,-0.037047792226
0.0,0.0,1.4300000000000006,-0.0366232283413
0.0,0.0,1.4300000000000006,-0.0366232283413
0.0,0.0,1.4300000000000006,-0.0366232283413
0.0,0.0,1.4300000000000006,-0.0366232283413
0.0,0.0,1.4300000000000006,-0.0366232283413
0.0,0.0,1.5100000000000007,-0.0282571054995
0.0,0.0,1.5100000000000007,-0.0282571054995
0.0,0.0,1.5100000000000007,-0.0282571054995
0.0,0.0,1.5100000000000007,-0.0282571054995
0.0,0.0,1.5100000000000007,-0.0282571054995
0.0,0.0,1.5100000000000007,-0.0282571054995
0.0,0.0,1.62,-0.0234409645199
0.0,0.0,1.62,-0.0234409645199
0.0,0.0,1.62,-0.0234409645199
0.0,0.0,1.7199999999999998,-0.010270263999700005
0.0,0.0,1.7199999999999998,-0.010270263999700005
0.0,0.0,1.7199999999999998,-0.010270263999700005
0.0,0.0,1.7199999999999998,-0.010270263999700005
0.0,0.0,1.7199999999999998,-0.010270263999700005
0.0,0.0,1.7199999999999998,-0.010270263999700005
0.0,0.0,1.8500000000000005,0.010118963196899998
0.0,0.0,1.8500000000000005,0.010118963196899998
0.0,0.0,1.8500000000000005,0.010118963196899998
0.0,0.0,1.8500000000000005,0.01871316414331
0.0,0.0,1.8500000000000005,0.01871316414331
0.0,0.0,1.9500000000000002,0.01871316414331
0.0,0.0,1.9500000000000002,0.01871316414331
0.0,0.0,1.9500000000000002,0.01871316414331
0.0,0.0,1.9500000000000002,0.01871316414331
0.0,0.0,2.0200000000000005,0.01939539844175
0.0,0.0,2.0200000000000005,0.01939539844175
0.0,0.0,2.0200000000000005,0.01939539844175
0.0,0.0,2.0200000000000005,0.01939539844175
0.0,0.0,2.0200000000000005,0.01939539844175
0.0,0.0,2.0699999999999994,0.003945522010399997
0.0,0.0,2.0699999999999994,0.003945522010399997
0.0,0.0,2.0699999999999994,0.003945522010399997
0.0,0.0,2.0699999999999994,0.003945522010399997
0.0,0.0,2.0699999999999994,0.003945522010399997
0.0,0.0,2.079999999999999,-0.0141457878053
0.0,0.0,2.079999999999999,-0.0141457878053
0.0,0.0,2.079999999999999,-0.0141457878053
0.0,0.0,2.079999999999999,-0.0141457878053
0.0,0.0,2.079999999999999,-0.0141457878053
0.0,0.0,2.0599999999999996,-0.044947233051000006
0.0,0.0,2.0599999999999996,-0.044947233051000006
0.0,0.0,2.0599999999999996,-0.044947233051000006
0.0,0.0,2.0599999999999996,-0.044947233051000006
0.0,0.0,2.0599999999999996,-0.053072538226800005
0.0,0.0,2.0599999999999996,-0.053072538226800005
0.0,0.0,2.0599999999999996,-0.053072538226800005
0.0,0.0,2.0599999999999996,-0.053072538226800005
0.0,0.0,2.0599999999999996,-0.053072538226800005
0.0,0.0,2.0900000000000007,-0.0477414987981
0.0,0.0,2.0900000000000007,-0.0477414987981
0.0,0.0,2.0900000000000007,-0.0477414987981
0.0,0.0,2.0900000000000007,-0.0477414987981
0.0,0.0,2.0900000000000007,-0.0477414987981
0.0,0.0,2.0900000000000007,-0.0477414987981
0.0,0.0,2.0900000000000007,-0.0477414987981
0.0,0.0,2.1000000000000005,-0.0523488782346
0.0,0.0,2.1000000000000005,-0.0523488782346
0.0,0.0,2.1000000000000005,-0.0523488782346
0.0,0.0,2.1000000000000005,-0.0523488782346
0.0,0.0,2.12,-0.0572669319808
0.0,0.0,2.12,-0.0572669319808
0.0,0.0,2.12,-0.0572669319808
0.0,0.0,2.12,-0.060847353190100005
0.0,0.0,2.12,-0.060847353190100005
0.0,0.0,2.1399999999999997,-0.060847353190100005
0.0,0.0,2.1399999999999997,-0.060847353190100005
0.0,0.0,2.1399999999999997,-0.060847353190100005
0.0,0.0,2.1399999999999997,-0.060847353190100005
0.0,0.0,2.1399999999999997,-0.0607285611331
0.0,0.0,2.1399999999999997,-0.0607285611331
0.0,0.0,2.1399999999999997,-0.0607285611331
0.0,0.0,2.1399999999999997,-0.0607285611331
0.0,0.0,2.1399999999999997,-0.0607285611331
0.0,0.0,2.1399999999999997,-0.0607285611331
0.0,0.0,2.1499999999999995,-0.0624742396175
0.0,0.0,2.1499999999999995,-0.0624742396175
0.0,0.0,2.1499999999999995,-0.0624742396175
0.0,0.0,2.1499999999999995,-0.060952309519
0.0,0.0,2.1499999999999995,-0.060952309519
0.0,0.0,2.1499999999999995,-0.060952309519
0.0,0.0,2.1499999999999995,-0.060952309519
0.0,0.0,2.1499999999999995,-0.060952309519
0.0,0.0,2.1499999999999995,-0.0673603080213
0.0,0.0,2.1499999999999995,-0.0673603080213
0.0,0.0,2.1499999999999995,-0.0673603080213
0.0,0.0,2.1499999999999995,-0.0673603080213
0.0,0.0,2.1499999999999995,-0.0673603080213
0.0,0.0,2.1499999999999995,-0.0578356496989
0.0,0.0,2.1499999999999995,-0.0578356496989
0.0,0.0,2.1499999999999995,-0.0578356496989
0.0,0.0,2.1499999999999995,-0.0578356496989
0.0,0.0,2.1499999999999995,-0.0578356496989
0.0,0.0,2.1499999999999995,-0.0578356496989
0.0,0.0,2.1499999999999995,-0.0578356496989
0.0,0.0,2.1499999999999995,-0.057895522564600004
0.0,0.0,2.1499999999999995,-0.057895522564600004
0.0,0.0,2.1900000000000004,-0.057437051087600006
0.0,0.0,2.1900000000000004,-0.057437051087600006
0.0,0.0,2.1900000000000004,-0.057437051087600006
0.0,0.0,2.1900000000000004,-0.057437051087600006
0.0,0.0,2.1900000000000004,-0.057437051087600006
0.0,0.0,2.1900000000000004,-0.060340296477000004
0.0,0.0,2.2299999999999995,-0.060340296477000004
0.0,0.0,2.2299999999999995,-0.060340296477000004
0.0,0.0,2.2299999999999995,-0.060340296477000004
0.0,0.0,2.2299999999999995,-0.060340296477000004
0.0,0.0,2.249999999999999,-0.05724811926480001
0.0,0.0,2.249999999999999,-0.05724811926480001
0.0,0.0,2.249999999999999,-0.05724811926480001
0.0,0.0,2.249999999999999,-0.05724811926480001
0.0,0.0,2.249999999999999,-0.05724811926480001
0.0,0.0,2.249999999999999,-0.05724811926480001
0.0,0.0,2.249999999999999,-0.05724811926480001
0.0,0.0,2.249999999999999,-0.0558619834482
0.0,0.0,2.249999999999999,-0.0558619834482
0.0,0.0,2.2299999999999995,-0.0482321642339
0.0,0.0,2.2299999999999995,-0.0482321642339
0.0,0.0,2.2299999999999995,-0.0482321642339
0.0,0.0,2.2299999999999995,-0.0482321642339
0.0,0.0,2.2299999999999995,-0.0482321642339
0.0,0.0,2.2299999999999995,-0.0482321642339
0.0,0.0,2.2199999999999998,-0.04593567177650001
0.0,0.0,2.2199999999999998,-0.04593567177650001
0.0,0.0,2.2199999999999998,-0.04593567177650001
0.0,0.0,2.2199999999999998,-0.04593567177650001
0.0,0.0,2.2,-0.0461712069809
0.0,0.0,2.2,-0.0461712069809
0.0,0.0,2.2,-0.0461712069809
0.0,0.0,2.2,-0.0461712069809
0.0,0.0,2.2,-0.0461712069809
0.0,0.0,2.2,-0.0461712069809
0.0,0.0,2.2,-0.0461712069809
0.0,0.0,2.2,-0.0461712069809
0.0,0.0,2.2199999999999998,-0.0404406897723
0.0,0.0,2.249999999999999,-0.0305135808885
0.0,0.0,2.249999999999999,-0.0305135808885
0.0,0.0,2.249999999999999,-0.0305135808885
0.0,0.0,2.249999999999999,-0.0305135808885
0.0,0.0,2.249999999999999,-0.0305135808885
0.0,0.0,2.249999999999999,-0.0305135808885
0.0,0.0,2.3,-0.0260824263095
0.0,0.0,2.3,-0.0260824263095
0.0,0.0,2.3,-0.0260824263095
0.0,0.0,2.38,-0.0241034999489
0.0,0.0,2.38,-0.0241034999489
0.0,0.0,2.38,-0.0241034999489
0.0,0.0,2.38,-0.0241034999489
0.0,0.0,2.38,-0.0241034999489
0.0,0.0,2.38,-0.0241034999489
0.0,0.0,2.38,-0.0241034999489
0.0,0.0,2.38,-0.0241034999489
0.0,0.0,2.38,-0.0241034999489
0.0,0.0,2.4899999999999993,-0.023008368909300005
0.0,0.0,2.6000000000000005,-0.016213953495000002
0.0,0.0,2.6000000000000005,-0.016213953495000002
0.0,0.0,2.6000000000000005,-0.016213953495000002
0.0,0.0,2.6000000000000005,-0.016213953495000002
0.0,0.0,2.6000000000000005,-0.016213953495000002
0.0,0.0,2.6000000000000005,-0.016213953495000002
0.0,0.0,2.6000000000000005,-0.016213953495000002
0.0,0.0,2.6000000000000005,-0.016213953495000002
0.0,0.0,2.63,-0.012066002935100004
0.0,0.0,2.63,-0.012066002935100004
0.0,0.0,2.6399999999999997,-0.006398810073700002
0.0,0.0,2.6399999999999997,-0.006398810073700002
0.0,0.0,2.6399999999999997,-0.006398810073700002
0.0,0.0,2.6399999999999997,-0.006398810073700002
0.0,0.0,2.6399999999999997,-0.006398810073700002
0.0,0.0,2.6000000000000005,-0.0008137915283000022
0.0,0.0,2.6000000000000005,-0.0008137915283000022
0.0,0.0,2.6000000000000005,-0.0008137915283000022
0.0,0.0,2.6000000000000005,-0.0008137915283000022
0.0,0.0,2.6000000000000005,-0.0008137915283000022
0.0,0.0,2.6000000000000005,-0.0012422651052000008
0.0,0.0,2.6000000000000005,-0.0012422651052000008
0.0,0.0,2.6000000000000005,-0.0012422651052000008
0.0,0.0,2.6000000000000005,-0.0012422651052000008
0.0,0.0,2.6000000000000005,-0.0012422651052000008
0.0,0.0,2.63,-0.0020887833088000032
0.0,0.0,2.63,-0.0020887833088000032
0.0,0.0,2.63,-0.0020887833088000032
0.0,0.0,2.6800000000000006,-0.0027483422309000013
0.0,0.0,2.6800000000000006,-0.0027483422309000013
0.0,0.0,2.6800000000000006,-0.0027483422309000013
0.0,0.0,2.6800000000000006,-0.0027483422309000013
0.0,0.0,2.6800000000000006,-0.0027483422309000013
0.0,0.0,2.6800000000000006,-0.0027483422309000013
0.0,0.0,2.7399999999999993,-0.0053507909178
0.0,0.0,2.7399999999999993,-0.0053507909178
0.0,0.0,2.7399999999999993,-0.0053507909178
0.0,0.0,2.7399999999999993,-0.0053507909178
0.0,0.0,2.7399999999999993,-0.0053507909178
0.0,0.0,2.7399999999999993,-0.0053507909178
0.0,0.0,2.7399999999999993,-0.0053507909178
0.0,0.0,2.8099999999999996,-0.005227681249300002
0.0,0.0,2.8099999999999996,-0.005227681249300002
0.0,0.0,2.8099999999999996,-0.005227681249300002
0.0,0.0,2.8600000000000003,-0.002035988494700002
0.0,0.0,2.8600000000000003,-0.002035988494700002
0.0,0.0,2.8600000000000003,-0.002035988494700002
0.0,0.0,2.8600000000000003,-0.002035988494700002
0.0,0.0,2.8600000000000003,-0.002035988494700002
0.0,0.0,2.8999999999999995,0.0018285214900999984
0.0,0.0,2.8999999999999995,0.0018285214900999984
0.0,0.0,2.8999999999999995,0.0018285214900999984
0.0,0.0,2.8999999999999995,0.0018285214900999984
0.0,0.0,2.9300000000000006,0.0352119319141
0.0,0.0,2.9300000000000006,0.0352119319141
0.0,0.0,2.9300000000000006,0.0352119319141
0.0,0.0,2.9300000000000006,0.0352119319141
0.0,0.0,2.9300000000000006,0.0352119319141
0.0,0.0,2.9300000000000006,0.0352119319141
0.0,0.0,2.9300000000000006,0.0352119319141
0.0,0.0,2.9300000000000006,0.0352119319141
0.0,0.0,2.9799999999999995,0.0851904340089
0.0,0.0,2.9799999999999995,0.0851904340089
0.0,0.0,3.0300000000000002,0.0888023935259
0.0,0.0,3.0300000000000002,0.0888023935259
0.0,0.0,3.0300000000000002,0.0888023935259
0.0,0.0,3.0300000000000002,0.0888023935259
0.0,0.0,3.0300000000000002,0.0888023935259
0.0,0.0,3.1100000000000003,0.0951892249287
0.0,0.0,3.1100000000000003,0.0951892249287
0.0,0.0,3.1100000000000003,0.0951892249287
0.0,0.0,3.1100000000000003,0.0951892249287
0.0,0.0,3.2,0.11379122361550001
0.0,0.0,3.2,0.11379122361550001
0.0,0.0,3.2,0.11379122361550001
0.0,0.0,3.2,0.11379122361550001
0.0,0.0,3.2,0.11379122361550001
0.0,0.0,3.2,0.11379122361550001
0.0,0.0,3.2,0.11379122361550001
0.0,0.0,3.3,0.10851537808779999
0.0,0.0,3.3,0.10851537808779999
0.0,0.0,3.3,0.10851537808779999
0.0,0.0,3.419999999999999,0.12101934477689999
0.0,0.0,3.419999999999999,0.12101934477689999
0.0,0.0,3.419999999999999,0.12101934477689999
0.0,0.0,3.419999999999999,0.12101934477689999
0.0,0.0,3.419999999999999,0.12101934477689999
0.0,0.0,3.419999999999999,0.12101934477689999
0.0,0.0,3.5699999999999994,0.1111245565117
0.0,0.0,3.5699999999999994,0.1111245565117
0.0,0.0,3.5699999999999994,0.1111245565117
0.0,0.0,3.669999999999999,0.10590654239059999
0.0,0.0,3.669999999999999,0.10590654239059999
0.0,0.0,3.669999999999999,0.10590654239059999
0.0,0.0,3.669999999999999,0.10590654239059999
0.0,0.0,3.669999999999999,0.10590654239059999
0.0,0.0,3.669999999999999,0.10590654239059999
0.0,0.0,3.669999999999999,0.10590654239059999
0.0,0.0,3.669999999999999,0.10590654239059999
0.0,0.0,3.7700000000000005,0.10798505321150001
0.0,0.0,3.8099999999999996,0.1149642132223
0.0,0.0,3.8099999999999996,0.1149642132223
0.0,0.0,3.8099999999999996,0.1149642132223
0.0,0.0,3.8099999999999996,0.1149642132223
0.0,0.0,3.8099999999999996,0.1149642132223
0.0,0.0,3.8099999999999996,0.1149642132223
0.0,0.0,3.87,0.09709999337799999
0.0,0.0,3.87,0.09709999337799999
0.0,0.0,3.87,0.09709999337799999
0.0,0.0,3.87,0.09709999337799999
0.0,0.0,3.87,0.09709999337799999
0.0,0.0,3.9300000000000006,0.09709999337799999
0.0,0.0,3.9300000000000006,0.08823918178679999
0.0,0.0,3.9300000000000006,0.08823918178679999
0.0,0.0,3.9300000000000006,0.08823918178679999
0.0,0.0,3.9300000000000006,0.08823918178679999
0.0,0.0,3.9300000000000006,0.08823918178679999
0.0,0.0,3.9300000000000006,0.08823918178679999
0.0,0.0,3.9300000000000006,0.08823918178679999
0.0,0.0,3.999999999999999,0.1073280833662
0.0,0.0,3.999999999999999,0.1073280833662
0.0,0.0,3.999999999999999,0.1073280833662
0.0,0.0,4.03,0.10961064323789999
0.0,0.0,4.03,0.10961064323789999
0.0,0.0,4.03,0.10961064323789999
0.0,0.0,4.03,0.10961064323789999
0.0,0.0,4.03,0.10961064323789999
0.0,0.0,4.05,0.102168250829
0.0,0.0,4.05,0.102168250829
0.0,0.0,4.05,0.102168250829
0.0,0.0,4.05,0.102168250829
0.0,0.0,4.069999999999999,0.0931982658804
0.0,0.0,4.069999999999999,0.0931982658804
0.0,0.0,4.069999999999999,0.0931982658804
0.0,0.0,4.069999999999999,0.0931982658804
0.0,0.0,4.069999999999999,0.0931982658804
0.0,0.0,4.069999999999999,0.0931982658804
0.0,0.0,4.069999999999999,0.0931982658804
0.0,0.0,4.069999999999999,0.0931982658804
0.0,0.0,4.079999999999999,0.09606830403210001
0.0,0.0,4.079999999999999,0.09606830403210001
0.0,0.0,4.03,0.11398992314939999
0.0,0.0,4.03,0.11398992314939999
0.0,0.0,4.03,0.11398992314939999
0.0,0.0,4.03,0.11398992314939999
0.0,0.0,4.03,0.11398992314939999
0.0,0.0,3.8899999999999997,0.11977241560820001
0.0,0.0,3.8899999999999997,0.11977241560820001
0.0,0.0,3.8899999999999997,0.11977241560820001
0.0,0.0,3.8899999999999997,0.11977241560820001
0.0,0.0,3.7199999999999998,0.10427724942569999
0.0,0.0,3.7199999999999998,0.10427724942569999
0.0,0.0,3.7199999999999998,0.10427724942569999
0.0,0.0,3.7199999999999998,0.10427724942569999
0.0,0.0,3.7199999999999998,0.10427724942569999
0.0,0.0,3.7199999999999998,0.10427724942569999
0.0,0.0,3.7199999999999998,0.10427724942569999
0.0,0.0,3.7199999999999998,0.10427724942569999
0.0,0.0,3.5300000000000002,0.08807599172
0.0,0.0,3.37,0.0660029388965
0.0,0.0,3.37,0.0660029388965
0.0,0.0,3.37,0.0660029388965
0.0,0.0,3.37,0.0660029388965
0.0,0.0,3.37,0.0660029388965
0.0,0.0,3.37,0.0660029388965
0.0,0.0,3.37,0.0660029388965
0.0,0.0,3.37,0.0660029388965
0.0,0.0,3.2399999999999993,0.0521900393069
0.0,0.0,3.2399999999999993,0.0521900393069
0.0,0.0,3.2399999999999993,0.0521900393069
0.0,0.0,3.1499999999999995,0.0365316458047
0.0,0.0,3.1499999999999995,0.0365316458047
0.0,0.0,3.1499999999999995,0.0365316458047
0.0,0.0,3.1499999999999995,0.0365316458047
0.0,0.0,3.1499999999999995,0.0365316458047
0.0,0.0,3.1499999999999995,0.0365316458047
0.0,0.0,3.1499999999999995,0.0365316458047
0.0,0.0,3.1499999999999995,0.0365316458047
0.0,0.0,3.1499999999999995,0.0365316458047
0.0,0.0,3.05,0.014727387577339998
0.0,0.0,3.05,0.014727387577339998
0.0,0.0,3.05,0.014727387577339998
0.0,0.0,3.05,0.014727387577339998
0.0,0.0,3.05,0.014727387577339998
0.0,0.0,3.05,0.014727387577339998
0.0,0.0,2.999999999999999,-0.008555930107800001
0.0,0.0,2.999999999999999,-0.008555930107800001
0.0,0.0,2.999999999999999,-0.008555930107800001
0.0,0.0,2.9799999999999995,-0.029505163431100004
0.0,0.0,2.9799999999999995,-0.029505163431100004
0.0,0.0,2.9799999999999995,-0.029505163431100004
0.0,0.0,2.9799999999999995,-0.029505163431100004
0.0,0.0,2.9799999999999995,-0.029505163431100004
0.0,0.0,2.9799999999999995,-0.029505163431100004
0.0,0.0,2.9300000000000006,-0.07244348898530001
0.0,0.0,2.9300000000000006,-0.07244348898530001
0.0,0.0,2.9300000000000006,-0.07244348898530001
0.0,0.0,2.9300000000000006,-0.07244348898530001
0.0,0.0,2.9300000000000006,-0.07244348898530001
0.0,0.0,2.88,-0.08524550124960001
0.0,0.0,2.88,-0.08524550124960001
0.0,0.0,2.88,-0.08524550124960001
0.0,0.0,2.88,-0.08524550124960001
0.0,0.0,2.8,-0.1205498538906
0.0,0.0,2.8,-0.1205498538906
0.0,0.0,2.8,-0.1205498538906
0.0,0.0,2.8,-0.1205498538906
0.0,0.0,2.8,-0.1205498538906
0.0,0.0,2.8,-0.1205498538906
0.0,0.0,2.71,-0.13987534865759998
0.0,0.0,2.71,-0.13987534865759998
0.0,0.0,2.71,-0.13987534865759998
0.0,0.0,2.71,-0.13987534865759998
0.0,0.0,2.63,-0.13987534865759998
0.0,0.0,2.63,-0.13987534865759998
0.0,0.0,2.63,-0.13987534865759998
0.0,0.0,2.63,-0.13987534865759998
0.0,0.0,2.63,-0.13987534865759998
0.0,0.0,2.5200000000000005,-0.1683780811726
0.0,0.0,2.5200000000000005,-0.1683780811726
0.0,0.0,2.5200000000000005,-0.1683780811726
0.0,0.0,2.5200000000000005,-0.1683780811726
0.0,0.0,2.4300000000000006,-0.1683780811726
0.0,0.0,2.4300000000000006,-0.1683780811726
0.0,0.0,2.4300000000000006,-0.1450011990966
0.0,0.0,2.4300000000000006,-0.1450011990966
0.0,0.0,2.4300000000000006,-0.1450011990966
0.0,0.0,2.3199999999999994,-0.1252434812486
0.0,0.0,2.3199999999999994,-0.1252434812486
0.0,0.0,2.3199999999999994,-0.1252434812486
0.0,0.0,2.3199999999999994,-0.1252434812486
0.0,0.0,2.3199999999999994,-0.1252434812486
0.0,0.0,2.3199999999999994,-0.1252434812486
0.0,0.0,2.3199999999999994,-0.1252434812486
0.0,0.0,2.2399999999999993,-0.041908416897
0.0,0.0,2.2399999999999993,-0.041908416897
0.0,0.0,2.2399999999999993,-0.041908416897
0.0,0.0,2.2399999999999993,-0.041908416897
0.0,0.0,2.2399999999999993,-0.041908416897
0.0,0.0,2.2,0.01877706032251
0.0,0.0,2.2,0.01877706032251
0.0,0.0,2.2,0.01877706032251
0.0,0.0,2.2,0.01877706032251
0.0,0.0,2.2,0.01877706032251
0.0,0.0,2.2,0.01877706032251
0.0,0.0,2.2,0.01877706032251
0.0,0.0,2.2,0.01877706032251
0.0,0.0,2.169999999999999,0.0440196320415
0.0,0.0,2.169999999999999,0.0440196320415
0.0,0.0,2.169999999999999,0.0440196320415
0.0,0.0,2.169999999999999,0.0440196320415
0.0,0.0,2.169999999999999,0.0440196320415
0.0,0.0,2.169999999999999,0.0440196320415
0.0,0.0,2.13,0.0503806769848
0.0,0.0,2.13,0.0503806769848
0.0,0.0,2.13,0.0503806769848
0.0,0.0,2.13,0.0503806769848
0.0,0.0,2.13,0.0503806769848
0.0,0.0,2.13,0.055358622223199996
0.0,0.0,2.13,0.055358622223199996
0.0,0.0,2.13,0.055358622223199996
0.0,0.0,2.13,0.055358622223199996
0.0,0.0,2.12,0.06286627799280001
0.0,0.0,2.12,0.06286627799280001
0.0,0.0,2.12,0.06286627799280001
0.0,0.0,2.12,0.06286627799280001
0.0,0.0,2.12,0.06286627799280001
0.0,0.0,2.1100000000000003,0.0678750313819
0.0,0.0,2.1100000000000003,0.0678750313819
0.0,0.0,2.1100000000000003,0.0678750313819
0.0,0.0,2.1100000000000003,0.0678750313819
0.0,0.0,2.0900000000000007,0.07480087876319999
0.0,0.0,2.0900000000000007,0.07480087876319999
0.0,0.0,2.0900000000000007,0.07480087876319999
0.0,0.0,2.0900000000000007,0.07480087876319999
0.0,0.0,2.0900000000000007,0.07480087876319999
0.0,0.0,2.0900000000000007,0.07480087876319999
0.0,0.0,2.0900000000000007,0.07480087876319999
0.0,0.0,2.079999999999999,0.0829283855856
0.0,0.0,2.079999999999999,0.0829283855856
0.0,0.0,2.079999999999999,0.1046971119941
0.0,0.0,2.079999999999999,0.1046971119941
0.0,0.0,2.079999999999999,0.1046971119941
0.0,0.0,2.079999999999999,0.1046971119941
0.0,0.0,2.079999999999999,0.1046971119941
0.0,0.0,2.0900000000000007,0.1046971119941
0.0,0.0,2.0900000000000007,0.1115935854614
0.0,0.0,2.0900000000000007,0.1115935854614
0.0,0.0,2.1000000000000005,0.1115935854614
0.0,0.0,2.1000000000000005,0.1115935854614
0.0,0.0,2.1000000000000005,0.10013995692139999
0.0,0.0,2.1000000000000005,0.10013995692139999
0.0,0.0,2.1000000000000005,0.10013995692139999
0.0,0.0,2.1000000000000005,0.10013995692139999
0.0,0.0,2.1000000000000005,0.10013995692139999
0.0,0.0,2.1000000000000005,0.10013995692139999
0.0,0.0,2.1000000000000005,0.10013995692139999
0.0,0.0,2.1000000000000005,0.10013995692139999
0.0,0.0,2.0599999999999996,0.11337650194769999
0.0,0.0,2.0599999999999996,0.11337650194769999
0.0,0.0,2.04,0.11884819343690001
0.0,0.0,2.04,0.11884819343690001
0.0,0.0,2.04,0.11884819343690001
0.0,0.0,2.04,0.11884819343690001
0.0,0.0,2.04,0.11884819343690001
0.0,0.0,2.04,0.11884819343690001
0.0,0.0,2.04,0.11884819343690001
0.0,0.0,2.04,0.11884819343690001
0.0,0.0,2.04,0.11884819343690001
0.0,0.0,2.04,0.11884819343690001
0.0,0.0,2.04,0.11884819343690001
0.0,0.0,1.96,0.10959756746890001
0.0,0.0,1.96,0.10959756746890001
0.0,0.0,1.9099999999999993,0.10959756746890001
0.0,0.0,1.9099999999999993,0.10959756746890001
0.0,0.0,1.9099999999999993,0.10959756746890001
0.0,0.0,1.9099999999999993,0.10959756746890001
0.0,0.0,1.9099999999999993,0.10959756746890001
0.0,0.0,1.9099999999999993,0.10959756746890001
0.0,0.0,1.9099999999999993,0.10959756746890001
0.0,0.0,1.9099999999999993,0.10959756746890001
0.0,0.0,1.87,0.10027077421549999
0.0,0.0,1.8199999999999994,0.10027077421549999
0.0,0.0,1.8199999999999994,0.10027077421549999
0.0,0.0,1.8199999999999994,0.10027077421549999
0.0,0.0,1.8199999999999994,0.10027077421549999
0.0,0.0,1.8199999999999994,0.10027077421549999
0.0,0.0,1.8199999999999994,0.10027077421549999
0.0,0.0,1.8199999999999994,0.10027077421549999
0.0,0.0,1.8199999999999994,0.10027077421549999
0.0,0.0,1.79,0.049449376761999994
0.0,0.0,1.7800000000000002,0.049449376761999994
0.0,0.0,1.7800000000000002,0.049449376761999994
0.0,0.0,1.7800000000000002,0.049449376761999994
0.0,0.0,1.7800000000000002,0.049449376761999994
0.0,0.0,1.7800000000000002,0.049449376761999994
0.0,0.0,1.7800000000000002,0.049449376761999994
0.0,0.0,1.7800000000000002,0.049449376761999994
0.0,0.0,1.7800000000000002,0.049449376761999994
0.0,0.0,1.7800000000000002,0.049449376761999994
0.0,0.0,1.8500000000000005,0.0472822524608
0.0,0.0,1.9799999999999995,0.0472822524608
0.0,0.0,1.9799999999999995,0.0472822524608
0.0,0.0,1.9799999999999995,0.0472822524608
0.0,0.0,1.9799999999999995,0.0472822524608
0.0,0.0,1.9799999999999995,0.0472822524608
0.0,0.0,2.13,0.0485604442657
0.0,0.0,2.13,0.0485604442657
0.0,0.0,2.13,0.0341835767031
0.0,0.0,2.13,0.0341835767031
0.0,0.0,2.13,0.0341835767031
0.0,0.0,2.329999999999999,0.0341835767031
0.0,0.0,2.329999999999999,0.0341835767031
0.0,0.0,2.329999999999999,0.0341835767031
0.0,0.0,2.329999999999999,0.0341835767031
0.0,0.0,2.329999999999999,0.0341835767031
0.0,0.0,2.329999999999999,0.0341835767031
0.0,0.0,2.5300000000000002,0.02738968748604
0.0,0.0,2.5300000000000002,0.02922671567653
0.0,0.0,2.5300000000000002,0.02922671567653
0.0,0.0,2.7399999999999993,0.02922671567653
0.0,0.0,2.7399999999999993,0.02922671567653
0.0,0.0,2.7399999999999993,0.03268822096293
0.0,0.0,2.7399999999999993,0.03268822096293
0.0,0.0,2.7399999999999993,0.03268822096293
0.0,0.0,2.7399999999999993,0.03268822096293
0.0,0.0,2.7399999999999993,0.03268822096293
0.0,0.0,2.8899999999999997,0.03268822096293
0.0,0.0,2.8899999999999997,0.04212505929179999
0.0,0.0,2.8899999999999997,0.04212505929179999
0.0,0.0,2.8899999999999997,0.04212505929179999
0.0,0.0,2.8899999999999997,0.04212505929179999
0.0,0.0,2.9699999999999998,0.0395142044873
0.0,0.0,2.9699999999999998,0.0395142044873
0.0,0.0,2.9699999999999998,0.0395142044873
0.0,0.0,2.9699999999999998,0.0395142044873
0.0,0.0,2.9899999999999993,0.0395142044873
0.0,0.0,2.9899999999999993,0.047212492674599996
0.0,0.0,2.9899999999999993,0.047212492674599996
0.0,0.0,2.9799999999999995,0.047212492674599996
0.0,0.0,2.9799999999999995,0.047212492674599996
0.0,0.0,2.9799999999999995,0.051889397204
0.0,0.0,2.9799999999999995,0.051889397204
0.0,0.0,2.9799999999999995,0.051889397204
0.0,0.0,2.9799999999999995,0.051889397204
0.0,0.0,2.9799999999999995,0.051889397204
0.0,0.0,2.95,0.051889397204
0.0,0.0,2.95,0.046025229618
0.0,0.0,2.95,0.046025229618
0.0,0.0,2.95,0.046025229618
0.0,0.0,2.9300000000000006,0.046025229618
0.0,0.0,2.9300000000000006,0.046025229618
0.0,0.0,2.9300000000000006,0.046025229618
0.0,0.0,2.9300000000000006,0.046025229618
0.0,0.0,2.9300000000000006,0.046025229618
0.0,0.0,2.9300000000000006,0.046025229618
0.0,0.0,2.9099999999999993,0.02519222069536
0.0,0.0,2.9099999999999993,0.02519222069536
0.0,0.0,2.9099999999999993,0.02519222069536
0.0,0.0,2.9099999999999993,0.02519222069536
0.0,0.0,2.9099999999999993,0.023382212966728
0.0,0.0,2.9099999999999993,0.023382212966728
0.0,0.0,2.9099999999999993,0.023382212966728
0.0,0.0,2.9099999999999993,0.023382212966728
0.0,0.0,2.9099999999999993,0.023382212966728
0.0,0.0,2.9099999999999993,0.023382212966728
0.0,0.0,2.8899999999999997,0.023382212966728
0.0,0.0,2.8899999999999997,0.024372174404609998
0.0,0.0,2.8899999999999997,0.024372174404609998
0.0,0.0,2.8899999999999997,0.024372174404609998
0.0,0.0,2.829999999999999,0.024372174404609998
0.0,0.0,2.829999999999999,0.024372174404609998
0.0,0.0,2.829999999999999,0.024767990224109998
0.0,0.0,2.829999999999999,0.024767990224109998
0.0,0.0,2.829999999999999,0.024767990224109998
0.0,0.0,2.829999999999999,0.024767990224109998
0.0,0.0,2.829999999999999,0.024767990224109998
0.0,0.0,2.7600000000000007,0.024728041142269997
0.0,0.0,2.7600000000000007,0.024728041142269997
0.0,0.0,2.71,0.024728041142269997
0.0,0.0,2.71,0.024728041142269997
0.0,0.0,2.71,0.024728041142269997
0.0,0.0,2.71,0.026005087420389997
0.0,0.0,2.71,0.026005087420389997
0.0,0.0,2.71,0.026005087420389997
0.0,0.0,2.71,0.026005087420389997
0.0,0.0,2.71,0.026005087420389997
0.0,0.0,2.71,0.026005087420389997
0.0,0.0,2.71,0.026005087420389997
0.0,0.0,2.62,0.026005087420389997
0.0,0.0,2.62,0.026005087420389997
0.0,0.0,2.62,0.024704515002719998
0.0,0.0,2.62,0.024704515002719998
0.0,0.0,2.62,0.024704515002719998
0.0,0.0,2.62,0.024704515002719998
0.0,0.0,2.62,0.024704515002719998
0.0,0.0,2.63,0.02447643317287
0.0,0.0,2.63,0.02447643317287
0.0,0.0,2.63,0.02447643317287
0.0,0.0,2.6399999999999997,0.02447643317287
0.0,0.0,2.6399999999999997,0.02442348282789
0.0,0.0,2.6399999999999997,0.02442348282789
0.0,0.0,2.6399999999999997,0.02442348282789
0.0,0.0,2.6399999999999997,0.02442348282789
0.0,0.0,2.6399999999999997,0.02442348282789
0.0,0.0,2.6399999999999997,0.02442348282789
0.0,0.0,2.6499999999999995,0.024455435574099998
0.0,0.0,2.6499999999999995,0.024455435574099998
0.0,0.0,2.6499999999999995,0.024455435574099998
0.0,0.0,2.6499999999999995,0.024455435574099998
0.0,0.0,2.6499999999999995,0.02722172252839
0.0,0.0,2.6499999999999995,0.02722172252839
0.0,0.0,2.6499999999999995,0.02722172252839
0.0,0.0,2.6499999999999995,0.02722172252839
0.0,0.0,2.6499999999999995,0.02722172252839
0.0,0.0,2.6499999999999995,0.02722172252839
0.0,0.0,2.6599999999999993,0.02722172252839
0.0,0.0,2.62,0.02580608055
0.0,0.0,2.62,0.02580608055
0.0,0.0,2.62,0.02173151029279
0.0,0.0,2.62,0.02173151029279
0.0,0.0,2.62,0.02173151029279
0.0,0.0,2.62,0.02173151029279
0.0,0.0,2.62,0.02173151029279
0.0,0.0,2.579999999999999,0.02173151029279
0.0,0.0,2.579999999999999,0.02028159378101
0.0,0.0,2.579999999999999,0.02028159378101
0.0,0.0,2.55,0.02028159378101
0.0,0.0,2.55,0.02028159378101
0.0,0.0,2.55,0.016937118023679996
0.0,0.0,2.55,0.016937118023679996
0.0,0.0,2.55,0.016937118023679996
0.0,0.0,2.55,0.016937118023679996
0.0,0.0,2.55,0.016937118023679996
0.0,0.0,2.55,0.016937118023679996
0.0,0.0,2.55,0.016937118023679996
0.0,0.0,2.4899999999999993,0.016937118023679996
0.0,0.0,2.4899999999999993,0.016937118023679996
0.0,0.0,2.4899999999999993,0.014278871007309998
0.0,0.0,2.4899999999999993,0.014278871007309998
0.0,0.0,2.4899999999999993,0.014278871007309998
0.0,0.0,2.4899999999999993,0.014278871007309998
0.0,0.0,2.4899999999999993,0.014278871007309998
0.0,0.0,2.4899999999999993,0.014278871007309998
0.0,0.0,2.4899999999999993,0.014704791829039998
0.0,0.0,2.4899999999999993,0.014704791829039998
0.0,0.0,2.499999999999999,0.014704791829039998
0.0,0.0,2.499999999999999,0.014704791829039998
0.0,0.0,2.499999999999999,0.014704791829039998
0.0,0.0,2.499999999999999,0.014241410419389998
0.0,0.0,2.499999999999999,0.014241410419389998
0.0,0.0,2.5200000000000005,0.014241410419389998
0.0,0.0,2.5200000000000005,0.014241410419389998
0.0,0.0,2.5200000000000005,0.014241410419389998
0.0,0.0,2.5200000000000005,0.014241410419389998
0.0,0.0,2.5200000000000005,0.014241410419389998
0.0,0.0,2.5200000000000005,0.009332777932299998
0.0,0.0,2.54,0.009332777932299998
0.0,0.0,2.54,0.009332777932299998
0.0,0.0,2.54,0.009332777932299998
0.0,0.0,2.54,0.006519861519399997
0.0,0.0,2.579999999999999,0.006519861519399997
0.0,0.0,2.579999999999999,0.006519861519399997
0.0,0.0,2.579999999999999,0.006519861519399997
0.0,0.0,2.579999999999999,0.0007739774882999997
0.0,0.0,2.579999999999999,0.0007739774882999997
0.0,0.0,2.579999999999999,0.0007739774882999997
0.0,0.0,2.63,0.0007739774882999997
0.0,0.0,2.63,0.0007739774882999997
0.0,0.0,2.63,0.008827739395199999
0.0,0.0,2.63,0.008827739395199999
0.0,0.0,2.63,0.008827739395199999
0.0,0.0,2.63,0.008827739395199999
0.0,0.0,2.63,0.008827739395199999
0.0,0.0,2.63,0.008827739395199999
0.0,0.0,2.63,0.008827739395199999
0.0,0.0,2.62,0.009457224048699999
0.0,0.0,2.62,0.009457224048699999
0.0,0.0,2.62,0.009591983631299998
0.0,0.0,2.62,0.009591983631299998
0.0,0.0,2.5900000000000007,0.009591983631299998
0.0,0.0,2.5900000000000007,0.009591983631299998
0.0,0.0,2.5900000000000007,0.009591983631299998
0.0,0.0,2.5900000000000007,0.0020200461149999967
0.0,0.0,2.5900000000000007,0.0020200461149999967
0.0,0.0,2.5900000000000007,0.0020200461149999967
0.0,0.0,2.55,0.0020200461149999967
0.0,0.0,2.55,0.0020200461149999967
0.0,0.0,2.55,-0.0036943275481
0.0,0.0,2.5200000000000005,-0.0036943275481
0.0,0.0,2.5200000000000005,-0.0036943275481
0.0,0.0,2.5200000000000005,-0.006659511476700002
0.0,0.0,2.5200000000000005,-0.006659511476700002
0.0,0.0,2.5200000000000005,-0.006659511476700002
0.0,0.0,2.5200000000000005,-0.006659511476700002
0.0,0.0,2.5200000000000005,-0.006659511476700002
0.0,0.0,2.4799999999999995,-0.006659511476700002
0.0,0.0,2.4799999999999995,-0.002462022006500003
0.0,0.0,2.4799999999999995,-0.002462022006500003
0.0,0.0,2.46,-0.002462022006500003
0.0,0.0,2.46,-0.002462022006500003
0.0,0.0,2.46,-0.007103776559200001
0.0,0.0,2.46,-0.007103776559200001
0.0,0.0,2.46,-0.007103776559200001
0.0,0.0,2.45,-0.007103776559200001
0.0,0.0,2.45,-0.007103776559200001
0.0,0.0,2.45,-0.007103776559200001
0.0,0.0,2.45,-0.014729056507300005
0.0,0.0,2.45,-0.014729056507300005
0.0,0.0,2.46,-0.014729056507300005
0.0,0.0,2.46,-0.014729056507300005
0.0,0.0,2.46,-0.0241924524307
0.0,0.0,2.46,-0.0241924524307
0.0,0.0,2.46,-0.0241924524307
0.0,0.0,2.46,-0.0241924524307
0.0,0.0,2.46,-0.0241924524307
0.0,0.0,2.46,-0.018307641148500003
0.0,0.0,2.46,-0.018307641148500003
0.0,0.0,2.4400000000000004,-0.018307641148500003
0.0,0.0,2.4400000000000004,-0.018307641148500003
0.0,0.0,2.4400000000000004,-0.0212810859084
0.0,0.0,2.4400000000000004,-0.0212810859084
0.0,0.0,2.4400000000000004,-0.0212810859084
0.0,0.0,2.4400000000000004,-0.0212810859084
0.0,0.0,2.419999999999999,-0.0212810859084
0.0,0.0,2.419999999999999,-0.0212810859084
0.0,0.0,2.419999999999999,-0.0199406296014
0.0,0.0,2.419999999999999,-0.0199406296014
0.0,0.0,2.4300000000000006,-0.0199406296014
0.0,0.0,2.4300000000000006,-0.0199406296014
0.0,0.0,2.4300000000000006,-0.0199406296014
0.0,0.0,2.4300000000000006,-0.0191431976854
0.0,0.0,2.4300000000000006,-0.0191431976854
0.0,0.0,2.4300000000000006,-0.0191431976854
0.0,0.0,2.4300000000000006,-0.0191431976854
0.0,0.0,2.4400000000000004,-0.015621121972800002
0.0,0.0,2.4400000000000004,-0.015621121972800002
0.0,0.0,2.4400000000000004,-0.015621121972800002
0.0,0.0,2.4400000000000004,-0.015621121972800002
0.0,0.0,2.4400000000000004,-0.015621121972800002
0.0,0.0,2.46,-0.015621121972800002
0.0,0.0,2.46,-0.015621121972800002
0.0,0.0,2.46,-0.015621121972800002
0.0,0.0,2.46,-0.015621121972800002
0.0,0.0,2.4699999999999998,-0.015843410044900003
0.0,0.0,2.4699999999999998,-0.015843410044900003
0.0,0.0,2.4699999999999998,-0.015843410044900003
0.0,0.0,2.4699999999999998,-0.023050986230300004
0.0,0.0,2.4699999999999998,-0.023050986230300004
0.0,0.0,2.4300000000000006,-0.023050986230300004
0.0,0.0,2.4300000000000006,-0.023050986230300004
0.0,0.0,2.4300000000000006,-0.024494074285
0.0,0.0,2.4300000000000006,-0.024494074285
0.0,0.0,2.4300000000000006,-0.024494074285
0.0,0.0,2.4300000000000006,-0.024494074285
0.0,0.0,2.4300000000000006,-0.024494074285
0.0,0.0,2.3899999999999997,-0.024494074285
0.0,0.0,2.3899999999999997,-0.028081327676700005
0.0,0.0,2.3899999999999997,-0.028081327676700005
0.0,0.0,2.3099999999999996,-0.028081327676700005
0.0,0.0,2.3099999999999996,-0.0291507057845
0.0,0.0,2.3099999999999996,-0.0291507057845
0.0,0.0,2.3099999999999996,-0.0291507057845
0.0,0.0,2.2399999999999993,-0.0291507057845
0.0,0.0,2.2399999999999993,-0.029657810926400005
0.0,0.0,2.2399999999999993,-0.029657810926400005
0.0,0.0,2.2399999999999993,-0.029657810926400005
0.0,0.0,2.2399999999999993,-0.029657810926400005
0.0,0.0,2.169999999999999,-0.029657810926400005
0.0,0.0,2.169999999999999,-0.029657810926400005
0.0,0.0,2.169999999999999,-0.0322327017784
0.0,0.0,2.169999999999999,-0.0322327017784
0.0,0.0,2.13,-0.0322327017784
0.0,0.0,2.13,-0.0322327017784
0.0,0.0,2.13,-0.0322327017784
0.0,0.0,2.13,-0.0322327017784
0.0,0.0,2.13,-0.0332394018769
0.0,0.0,2.1000000000000005,-0.0332394018769
0.0,0.0,2.1000000000000005,-0.0332394018769
0.0,0.0,2.1000000000000005,-0.0332394018769
0.0,0.0,2.1000000000000005,-0.0391173027455
0.0,0.0,2.1000000000000005,-0.0391173027455
0.0,0.0,2.1000000000000005,-0.0391173027455
0.0,0.0,2.1000000000000005,-0.0391173027455
0.0,0.0,2.1000000000000005,-0.0391173027455
0.0,0.0,2.1000000000000005,-0.0391173027455
0.0,0.0,2.1000000000000005,-0.045362684875700006
0.0,0.0,2.1000000000000005,-0.045362684875700006
0.0,0.0,2.1100000000000003,-0.045362684875700006
0.0,0.0,2.1100000000000003,-0.0516729988157
0.0,0.0,2.1100000000000003,-0.0516729988157
0.0,0.0,2.13,-0.0516729988157
0.0,0.0,2.13,-0.0516729988157
0.0,0.0,2.13,-0.0516729988157
0.0,0.0,2.13,-0.0516729988157
0.0,0.0,2.13,-0.0516729988157
0.0,0.0,2.13,-0.059776280075299996
0.0,0.0,2.1499999999999995,-0.059776280075299996
0.0,0.0,2.1499999999999995,-0.059776280075299996
0.0,0.0,2.1499999999999995,-0.0659685544669
0.0,0.0,2.1499999999999995,-0.0659685544669
0.0,0.0,2.1499999999999995,-0.0659685544669
0.0,0.0,2.1499999999999995,-0.0659685544669
0.0,0.0,2.1499999999999995,-0.0659685544669
0.0,0.0,2.1900000000000004,-0.0659685544669
0.0,0.0,2.1900000000000004,-0.0725066922605
0.0,0.0,2.1900000000000004,-0.0725066922605
0.0,0.0,2.2299999999999995,-0.0725066922605
0.0,0.0,2.2299999999999995,-0.0725066922605
0.0,0.0,2.2299999999999995,-0.0725066922605
0.0,0.0,2.2299999999999995,-0.0744471289217
0.0,0.0,2.2299999999999995,-0.0744471289217
0.0,0.0,2.2299999999999995,-0.0744471289217
0.0,0.0,2.2299999999999995,-0.0744471289217
0.0,0.0,2.2299999999999995,-0.0744471289217
0.0,0.0,2.2299999999999995,-0.0744471289217
0.0,0.0,2.2800000000000002,-0.07390928640960001
0.0,0.0,2.2800000000000002,-0.07390928640960001
0.0,0.0,2.2800000000000002,-0.07390928640960001
0.0,0.0,2.2800000000000002,-0.07621817663310002
0.0,0.0,2.2800000000000002,-0.07621817663310002
0.0,0.0,2.29,-0.07621817663310002
0.0,0.0,2.29,-0.07621817663310002
0.0,0.0,2.29,-0.07621817663310002
0.0,0.0,2.29,-0.0792131833736
0.0,0.0,2.29,-0.0792131833736
0.0,0.0,2.29,-0.0792131833736
0.0,0.0,2.29,-0.0792131833736
0.0,0.0,2.29,-0.0792131833736
0.0,0.0,2.29,-0.0777531899516
0.0,0.0,2.29,-0.0777531899516
0.0,0.0,2.3199999999999994,-0.0777531899516
0.0,0.0,2.3199999999999994,-0.0777531899516
0.0,0.0,2.3199999999999994,-0.0777531899516
0.0,0.0,2.3199999999999994,-0.0777531899516
0.0,0.0,2.329999999999999,-0.0744808427989
0.0,0.0,2.329999999999999,-0.0744808427989
0.0,0.0,2.329999999999999,-0.0744808427989
0.0,0.0,2.329999999999999,-0.0744808427989
0.0,0.0,2.329999999999999,-0.07547614350910001
0.0,0.0,2.329999999999999,-0.07547614350910001
0.0,0.0,2.37,-0.07547614350910001
0.0,0.0,2.37,-0.07547614350910001
0.0,0.0,2.37,-0.07547614350910001
0.0,0.0,2.37,-0.07547614350910001
0.0,0.0,2.419999999999999,-0.0701414085924
0.0,0.0,2.419999999999999,-0.0701414085924
0.0,0.0,2.419999999999999,-0.0701414085924
0.0,0.0,2.419999999999999,-0.0681351833045
0.0,0.0,2.419999999999999,-0.0681351833045
0.0,0.0,2.419999999999999,-0.0681351833045
0.0,0.0,2.4799999999999995,-0.0681351833045
0.0,0.0,2.4799999999999995,-0.0681351833045
0.0,0.0,2.4799999999999995,-0.0681351833045
0.0,0.0,2.4799999999999995,-0.0681351833045
0.0,0.0,2.4799999999999995,-0.0681351833045
0.0,0.0,2.54,-0.059924725443100006
0.0,0.0,2.54,-0.059924725443100006
0.0,0.0,2.54,-0.049742009490700005
0.0,0.0,2.54,-0.049742009490700005
0.0,0.0,2.5900000000000007,-0.049742009490700005
0.0,0.0,2.5900000000000007,-0.049742009490700005
0.0,0.0,2.5900000000000007,-0.049742009490700005
0.0,0.0,2.6000000000000005,-0.0396275259554
0.0,0.0,2.6000000000000005,-0.0396275259554
0.0,0.0,2.6000000000000005,-0.0396275259554
0.0,0.0,2.6000000000000005,-0.0396275259554
0.0,0.0,2.6000000000000005,-0.028166759759100005
0.0,0.0,2.6000000000000005,-0.028166759759100005
0.0,0.0,2.6000000000000005,-0.028166759759100005
0.0,0.0,2.6000000000000005,-0.028166759759100005
0.0,0.0,2.6000000000000005,-0.028166759759100005
0.0,0.0,2.6000000000000005,-0.028166759759100005
0.0,0.0,2.6000000000000005,-0.028166759759100005
0.0,0.0,2.6000000000000005,-0.028166759759100005
0.0,0.0,2.6000000000000005,-0.028166759759100005
0.0,0.0,2.6100000000000003,-0.0074255429208000025
0.0,0.0,2.6100000000000003,-0.0074255429208000025
0.0,0.0,2.6100000000000003,-0.0074255429208000025
0.0,0.0,2.6499999999999995,-0.0018650442361000004
0.0,0.0,2.6499999999999995,-0.0018650442361000004
0.0,0.0,2.6499999999999995,-0.0018650442361000004
0.0,0.0,2.6499999999999995,-0.0018650442361000004
0.0,0.0,2.6499999999999995,-0.0018650442361000004
0.0,0.0,2.6499999999999995,0.0006702840328999989
0.0,0.0,2.71,0.0006702840328999989
0.0,0.0,2.71,0.0006702840328999989
0.0,0.0,2.71,0.0006702840328999989
0.0,0.0,2.7800000000000002,-0.0157321579754
0.0,0.0,2.7800000000000002,-0.0157321579754
0.0,0.0,2.7800000000000002,-0.0157321579754
0.0,0.0,2.7800000000000002,-0.0157321579754
0.0,0.0,2.7800000000000002,-0.0157321579754
0.0,0.0,2.7800000000000002,-0.0157321579754
0.0,0.0,2.7800000000000002,-0.0157321579754
0.0,0.0,2.7800000000000002,-0.0157321579754
0.0,0.0,2.8400000000000007,-0.034850288182400005
0.0,0.0,2.8400000000000007,-0.034850288182400005
0.0,0.0,2.8500000000000005,-0.0435419641435
0.0,0.0,2.8500000000000005,-0.0435419641435
0.0,0.0,2.8500000000000005,-0.0435419641435
0.0,0.0,2.8500000000000005,-0.0435419641435
0.0,0.0,2.8500000000000005,-0.0435419641435
0.0,0.0,2.8400000000000007,-0.0383671894669
0.0,0.0,2.8400000000000007,-0.0383671894669
0.0,0.0,2.8400000000000007,-0.0383671894669
0.0,0.0,2.8400000000000007,-0.0383671894669
0.0,0.0,2.829999999999999,-0.022678818553600003
0.0,0.0,2.829999999999999,-0.022678818553600003
0.0,0.0,2.829999999999999,-0.022678818553600003
0.0,0.0,2.829999999999999,-0.022678818553600003
0.0,0.0,2.829999999999999,-0.022678818553600003
0.0,0.0,2.829999999999999,-0.022678818553600003
0.0,0.0,2.829999999999999,-0.022678818553600003
0.0,0.0,2.829999999999999,-0.022678818553600003
0.0,0.0,2.829999999999999,-0.0273983478546
0.0,0.0,2.8199999999999994,-0.0388959571719
0.0,0.0,2.8199999999999994,-0.0388959571719
0.0,0.0,2.8199999999999994,-0.0388959571719
0.0,0.0,2.8199999999999994,-0.0388959571719
0.0,0.0,2.8199999999999994,-0.0388959571719
0.0,0.0,2.8199999999999994,-0.0388959571719
0.0,0.0,2.8199999999999994,-0.0388959571719
0.0,0.0,2.8199999999999994,-0.0388959571719
0.0,0.0,2.8500000000000005,-0.0353939197957
0.0,0.0,2.8500000000000005,-0.0353939197957
0.0,0.0,2.8500000000000005,-0.0353939197957
0.0,0.0,2.8500000000000005,-0.003904120996500001
0.0,0.0,2.8500000000000005,-0.003904120996500001
0.0,0.0,2.87,-0.003904120996500001
0.0,0.0,2.87,-0.003904120996500001
0.0,0.0,2.87,-0.003904120996500001
0.0,0.0,2.87,-0.003904120996500001
0.0,0.0,2.87,-0.003904120996500001
0.0,0.0,2.87,-0.003904120996500001
0.0,0.0,2.87,-0.003904120996500001
0.0,0.0,2.919999999999999,0.018228692933959997
0.0,0.0,2.919999999999999,0.02077961387117
0.0,0.0,2.9699999999999998,0.02077961387117
0.0,0.0,2.9699999999999998,0.02077961387117
0.0,0.0,2.9699999999999998,0.02077961387117
0.0,0.0,2.9699999999999998,0.02077961387117
0.0,0.0,2.9699999999999998,0.02077961387117
0.0,0.0,2.9899999999999993,0.0322418045253
0.0,0.0,2.9899999999999993,0.0322418045253
0.0,0.0,2.9899999999999993,0.049226503819299994
0.0,0.0,2.9899999999999993,0.049226503819299994
0.0,0.0,2.999999999999999,0.049226503819299994
0.0,0.0,2.999999999999999,0.049226503819299994
0.0,0.0,2.999999999999999,0.049226503819299994
0.0,0.0,2.999999999999999,0.049226503819299994
0.0,0.0,2.9799999999999995,0.0750199146569
0.0,0.0,2.9799999999999995,0.0750199146569
0.0,0.0,2.9799999999999995,0.0750199146569
0.0,0.0,2.9799999999999995,0.0750199146569
0.0,0.0,2.9799999999999995,0.0750199146569
0.0,0.0,2.9799999999999995,0.0820292867721
0.0,0.0,2.95,0.0820292867721
0.0,0.0,2.95,0.0820292867721
0.0,0.0,2.95,0.0820292867721
0.0,0.0,2.95,0.0820292867721
0.0,0.0,2.9300000000000006,0.08808590099220001
0.0,0.0,2.9300000000000006,0.08808590099220001
0.0,0.0,2.9300000000000006,0.08808590099220001
0.0,0.0,2.9300000000000006,0.08808590099220001
0.0,0.0,2.9300000000000006,0.08808590099220001
0.0,0.0,2.8999999999999995,0.07552745193249999
0.0,0.0,2.8999999999999995,0.07552745193249999
0.0,0.0,2.8999999999999995,0.07552745193249999
0.0,0.0,2.8999999999999995,0.07552745193249999
0.0,0.0,2.8999999999999995,0.0632078424097
0.0,0.0,2.8999999999999995,0.0632078424097
0.0,0.0,2.8999999999999995,0.0632078424097
0.0,0.0,2.8999999999999995,0.0632078424097
0.0,0.0,2.8999999999999995,0.0632078424097
0.0,0.0,2.8999999999999995,0.0632078424097
0.0,0.0,2.87,0.067731179297
0.0,0.0,2.87,0.067731179297
0.0,0.0,2.87,0.067731179297
0.0,0.0,2.87,0.067731179297
0.0,0.0,2.88,0.0746568441391
0.0,0.0,2.88,0.0746568441391
0.0,0.0,2.88,0.0746568441391
0.0,0.0,2.88,0.0746568441391
0.0,0.0,2.88,0.0746568441391
0.0,0.0,2.88,0.0746568441391
0.0,0.0,2.87,0.0685516446829
0.0,0.0,2.87,0.0685516446829
0.0,0.0,2.87,0.0685516446829
0.0,0.0,2.87,0.0685516446829
0.0,0.0,2.88,0.06654914096
0.0,0.0,2.88,0.06654914096
0.0,0.0,2.88,0.06654914096
0.0,0.0,2.88,0.06654914096
0.0,0.0,2.88,0.06654914096
0.0,0.0,2.88,0.06654914096
0.0,0.0,2.829999999999999,0.0750721432269
0.0,0.0,2.829999999999999,0.0750721432269
0.0,0.0,2.829999999999999,0.0750721432269
0.0,0.0,2.79,0.078096549958
0.0,0.0,2.79,0.078096549958
0.0,0.0,2.79,0.078096549958
0.0,0.0,2.79,0.078096549958
0.0,0.0,2.79,0.078096549958
0.0,0.0,2.79,0.078096549958
0.0,0.0,2.7399999999999993,0.07040417566900001
0.0,0.0,2.7399999999999993,0.07040417566900001
0.0,0.0,2.7399999999999993,0.07040417566900001
0.0,0.0,2.7399999999999993,0.07040417566900001
0.0,0.0,2.7,0.0582277029753
0.0,0.0,2.7,0.0582277029753
0.0,0.0,2.7,0.0582277029753
0.0,0.0,2.7,0.0582277029753
0.0,0.0,2.7,0.0582277029753
0.0,0.0,2.7,0.0582277029753
0.0,0.0,2.7,0.0582277029753
0.0,0.0,2.7,0.0582277029753
0.0,0.0,2.7,0.0582277029753
0.0,0.0,2.6000000000000005,0.0517460554839
0.0,0.0,2.6000000000000005,0.0517460554839
0.0,0.0,2.6000000000000005,0.0517460554839
0.0,0.0,2.6000000000000005,0.0517460554839
0.0,0.0,2.6000000000000005,0.0517460554839
0.0,0.0,2.6000000000000005,0.0517460554839
0.0,0.0,2.5900000000000007,0.050411321222799996
0.0,0.0,2.5900000000000007,0.050411321222799996
0.0,0.0,2.5900000000000007,0.050411321222799996
0.0,0.0,2.5900000000000007,0.050411321222799996
0.0,0.0,2.5900000000000007,0.050411321222799996
0.0,0.0,2.5599999999999996,0.0424601752311
0.0,0.0,2.5599999999999996,0.0424601752311
0.0,0.0,2.5599999999999996,0.0424601752311
0.0,0.0,2.5599999999999996,0.0424601752311
0.0,0.0,2.5599999999999996,0.0424601752311
0.0,0.0,2.5599999999999996,0.0424601752311
0.0,0.0,2.5599999999999996,0.0424601752311
0.0,0.0,2.54,0.0345556735993
0.0,0.0,2.5100000000000007,0.02791914902632
0.0,0.0,2.5100000000000007,0.02791914902632
0.0,0.0,2.5100000000000007,0.02791914902632
0.0,0.0,2.5100000000000007,0.02791914902632
0.0,0.0,2.5100000000000007,0.02791914902632
0.0,0.0,2.5100000000000007,0.02791914902632
0.0,0.0,2.4899999999999993,0.022346027661161998
0.0,0.0,2.4899999999999993,0.022346027661161998
0.0,0.0,2.4899999999999993,0.022346027661161998
0.0,0.0,2.46,0.01943880459298
0.0,0.0,2.46,0.01943880459298
0.0,0.0,2.46,0.01943880459298
0.0,0.0,2.46,0.01943880459298
0.0,0.0,2.46,0.01943880459298
0.0,0.0,2.46,0.01943880459298
0.0,0.0,2.46,0.01943880459298
0.0,0.0,2.46,0.01943880459298
0.0,0.0,2.46,0.01943880459298
0.0,0.0,2.46,0.019118221476719998
0.0,0.0,2.46,0.024648812599529998
0.0,0.0,2.46,0.024648812599529998
0.0,0.0,2.46,0.024648812599529998
0.0,0.0,2.46,0.024648812599529998
0.0,0.0,2.46,0.024648812599529998
0.0,0.0,2.46,0.024648812599529998
0.0,0.0,2.46,0.024648812599529998
0.0,0.0,2.4699999999999998,0.02924563083802
0.0,0.0,2.4699999999999998,0.02924563083802
0.0,0.0,2.4699999999999998,0.02924563083802
0.0,0.0,2.4699999999999998,0.036479277536299995
0.0,0.0,2.4699999999999998,0.036479277536299995
0.0,0.0,2.4699999999999998,0.036479277536299995
0.0,0.0,2.4699999999999998,0.036479277536299995
0.0,0.0,2.4699999999999998,0.0452141445131
0.0,0.0,2.4699999999999998,0.0452141445131
0.0,0.0,2.4699999999999998,0.0452141445131
0.0,0.0,2.4699999999999998,0.0452141445131
0.0,0.0,2.4699999999999998,0.0452141445131
0.0,0.0,2.4699999999999998,0.0452141445131
0.0,0.0,2.4699999999999998,0.0466108452529
0.0,0.0,2.4699999999999998,0.0466108452529
0.0,0.0,2.4699999999999998,0.0466108452529
0.0,0.0,2.46,0.0460090301931
0.0,0.0,2.46,0.0460090301931
0.0,0.0,2.46,0.0460090301931
0.0,0.0,2.46,0.0460090301931
0.0,0.0,2.46,0.0460090301931
0.0,0.0,2.46,0.0460090301931
0.0,0.0,2.46,0.0459214840085
0.0,0.0,2.46,0.0459214840085
0.0,0.0,2.46,0.0459214840085
0.0,0.0,2.46,0.0459214840085
0.0,0.0,2.46,0.0459214840085
0.0,0.0,2.4799999999999995,0.0378698781133
0.0,0.0,2.4799999999999995,0.0378698781133
0.0,0.0,2.4799999999999995,0.0378698781133
0.0,0.0,2.4799999999999995,0.0378698781133
0.0,0.0,2.4799999999999995,0.0378698781133
0.0,0.0,2.5100000000000007,0.0374108590186
0.0,0.0,2.5100000000000007,0.0374108590186
0.0,0.0,2.5100000000000007,0.0374108590186
0.0,0.0,2.5100000000000007,0.0374108590186
0.0,0.0,2.5100000000000007,0.0374108590186
0.0,0.0,2.5300000000000002,0.036207510158499996
0.0,0.0,2.5300000000000002,0.036207510158499996
0.0,0.0,2.5300000000000002,0.036207510158499996
0.0,0.0,2.5300000000000002,0.036207510158499996
0.0,0.0,2.5300000000000002,0.036207510158499996
0.0,0.0,2.5300000000000002,0.0346387699247
0.0,0.0,2.5300000000000002,0.0346387699247
0.0,0.0,2.5300000000000002,0.0346387699247
0.0,0.0,2.5300000000000002,0.0346387699247
0.0,0.0,2.5300000000000002,0.0346387699247
0.0,0.0,2.499999999999999,0.03139084391301
0.0,0.0,2.499999999999999,0.03139084391301
0.0,0.0,2.499999999999999,0.03139084391301
0.0,0.0,2.499999999999999,0.03139084391301
0.0,0.0,2.499999999999999,0.03139084391301
0.0,0.0,2.499999999999999,0.03139084391301
0.0,0.0,2.45,0.02836076822137
0.0,0.0,2.45,0.02836076822137
0.0,0.0,2.45,0.02836076822137
0.0,0.0,2.4300000000000006,0.02677821367984
0.0,0.0,2.4300000000000006,0.02677821367984
0.0,0.0,2.4300000000000006,0.02677821367984
0.0,0.0,2.4300000000000006,0.02677821367984
0.0,0.0,2.4300000000000006,0.02677821367984
0.0,0.0,2.4300000000000006,0.02677821367984
0.0,0.0,2.3999999999999995,0.027692529372919997
0.0,0.0,2.3999999999999995,0.027692529372919997
0.0,0.0,2.3999999999999995,0.027692529372919997
0.0,0.0,2.3999999999999995,0.027692529372919997
0.0,0.0,2.4099999999999993,0.02531989198183
0.0,0.0,2.4099999999999993,0.02531989198183
0.0,0.0,2.4099999999999993,0.02531989198183
0.0,0.0,2.4099999999999993,0.02531989198183
0.0,0.0,2.4099999999999993,0.02531989198183
0.0,0.0,2.4099999999999993,0.02531989198183
0.0,0.0,2.4099999999999993,0.02531989198183
0.0,0.0,2.4099999999999993,0.02531989198183
0.0,0.0,2.4099999999999993,0.02531989198183
0.0,0.0,2.4699999999999998,0.0232986006886243
0.0,0.0,2.4699999999999998,0.0232986006886243
0.0,0.0,2.4699999999999998,0.0232986006886243
0.0,0.0,2.4699999999999998,0.0232986006886243
0.0,0.0,2.4699999999999998,0.0232986006886243
0.0,0.0,2.4699999999999998,0.0232986006886243
0.0,0.0,2.5100000000000007,0.024132398888516
0.0,0.0,2.5100000000000007,0.024132398888516
0.0,0.0,2.5100000000000007,0.024132398888516
0.0,0.0,2.5100000000000007,0.024132398888516
0.0,0.0,2.54,0.022328055929439997
0.0,0.0,2.54,0.022328055929439997
0.0,0.0,2.54,0.022328055929439997
0.0,0.0,2.54,0.022328055929439997
0.0,0.0,2.54,0.022328055929439997
0.0,0.0,2.54,0.022328055929439997
0.0,0.0,2.54,0.022328055929439997
0.0,0.0,2.579999999999999,0.023042765446055
0.0,0.0,2.579999999999999,0.023042765446055
0.0,0.0,2.62,0.024328198283959997
0.0,0.0,2.62,0.024328198283959997
0.0,0.0,2.62,0.024328198283959997
0.0,0.0,2.62,0.024328198283959997
0.0,0.0,2.62,0.024328198283959997
0.0,0.0,2.62,0.024328198283959997
0.0,0.0,2.6399999999999997,0.023440141230869
0.0,0.0,2.6399999999999997,0.023440141230869
0.0,0.0,2.6399999999999997,0.023440141230869
0.0,0.0,2.6399999999999997,0.023440141230869
0.0,0.0,2.63,0.022593664471108
0.0,0.0,2.63,0.022593664471108
0.0,0.0,2.63,0.022593664471108
0.0,0.0,2.63,0.022593664471108
0.0,0.0,2.63,0.022593664471108
0.0,0.0,2.63,0.022593664471108
0.0,0.0,2.63,0.022593664471108
0.0,0.0,2.63,0.022593664471108
0.0,0.0,2.63,0.022593664471108
0.0,0.0,2.62,0.02674904186283
0.0,0.0,2.6100000000000003,0.02753375470643
0.0,0.0,2.6100000000000003,0.02753375470643
0.0,0.0,2.6100000000000003,0.02753375470643
0.0,0.0,2.6100000000000003,0.02753375470643
0.0,0.0,2.6100000000000003,0.02753375470643
0.0,0.0,2.6100000000000003,0.02753375470643
